ID;longitude;latitude;name;description
a7e5b55f-82fb-4bb7-955f-fafc07dfd59b;10.452418;51.772276;Clausthal-Zellerfeld - ;Asphaltierter Parkplatz an der Straße, die abends/nachts sehr wenig befahren ist. An einer Stelle hat man etwas Fernblick. Die abgestorbenen Bäume bieten einen etwas traurigen Anblick. Das Vogelgezwitscher und ein schöner Sonnenuntergang entschädigen. Ein Schild warnt vor Wildschweinen.
922ec2be-a818-4096-a97d-073961b43db6;10.457914;51.767919;Altenau - B242;Kleiner Parkplatz bei der Magdeburger Hütte, schöne Aussicht ins Tal. Allerdings direkt an der Straße - uns hat es nicht gestört da nachts kaum befahren. Auf dem Parkplatz vorher WoMo-Verbotsschild, aber hier nicht, sind über Nacht geblieben, ganz problemlos.
b2ad4140-4309-4727-8e5a-a223a450221e;10.44305;51.79732;Altenau - 35 Karl-Reinecke-Weg;Stellplatz direkt an der Therme, Bezahlung in der Therme , Strom über Säule mit 0,50 €  Münzen, WC zu den Öffnungszeiten der Therme.
1ddcdf7a-fa7f-4786-919b-1f12a49831bc;10.443244;51.797925;Altenau - 35 Karl-Reinecke-Weg;Allgemeiner Parkplatz der Therme "Heißer Brocken" in Altenau. Es gibt keinen ausgewiesenen Bereich für Wohnmobile. Wenn Sie Strom möchten, parken Sie in der Nähe der Stromsäulen. Quadrat teilweise schräg. Unterirdisch asphaltiert, teilweise Schotter.
0cbae5da-7262-482c-930e-69ab89626c3e;10.416624;51.799453;Waldcampingplatz Polstertal;Super schöner und sehr ruhig gelegener Waldcampingplatz ca. 500m von der Straße entfernt über einen geschotterten Forstweg zu erreichen. Die Sanitären sind frisch renoviert, die Betreiber sind sehr freundlich und hilfsbereit. Hobbithäuser, Weinfässer und zwei Lodges kann man mieten!
ebffee3e-7de1-4b00-8624-cb8c23831063;10.43395;51.80129;Wohnmobil-Stellplatz Alter Bahnhof Altenau;Herzlich Willkommen bei Andrea und Frank im Oberharz auf unserem einfachen, kleinen Stellplatz am Ortsrand, sehr ruhig gelegen. Wir haben 30 Stellplätze, davon 20 mit Strom. Der ideale Ausgangspunkt für Wanderungen/Radtouren.
e4aa3658-bdc8-47c5-841d-272ae181f8c2;10.448729;51.80102;Altenau - 16 Sonderstraße;Tagesplatz ohne Ver- und Entsorgungsmöglichkeiten. Ausgangspunkt für tolle Wandertouren. Spielplatz in der Nähe.
45db548a-6b39-4602-98ec-8ca49aae398c;10.460371;51.798906;Altenau - 43 Kleine Oker;Kleiner Parkplatz des Waldschwimmbades am Ende einer Sackgasse. Freibad (mit dem Wasser der kleinen Oker = a...kalt) kostenfrei. Kleiner Spielplatz mit Rutsche, Schaukeltieren und Sandkasten auf Schwimmbadgelände. Übernachtung (für kleine Mobile und Kastenwagen <6m) geduldet. nachts sehr ruhig
a32ac27b-8fb2-4ff8-9c58-e5a5a86b9307;10.448869;51.803968;Altenau - 3 L504;Altenau, Kostenloser Stellplatz auf einem Parkplatz. Der Platz ist gut für einen Tag. Direkt im Ort. Gegenüber ein Lebensmittelladen. Zu Fuß ist die Ortsmitte gut zu erreichen. Guter Ausgangspunkt für Wandertouren. Keine Ver und Entsorgung
0cbdcd3c-0a05-4baa-a653-43c0e982716d;10.36788;51.79001;Clausthal-Zellerfeld - B242;Netter ruhiger Platz ein Stück abseits der Straße. Die Straße hört man kaum, Man steht idyllisch.
3f3bcabe-aa14-41d3-b595-855a0e8a00f7;10.353764;51.743557;Osterode am Harz - ;Kleiner Erholungsplatz am Waldrand, gut zu erreichen (nahe einer Straße, welche jedoch nachts wenig befahren ist), Pause machen erwünscht
a37f45cf-b109-4653-9f98-11cd24de3757;10.351475;51.747814;Osterode am Harz - B498;Parkplatz oberhalb der Talsperre
8665987a-7eb9-47ce-9c6b-cde729151938;10.467565;51.806422;Altenau - Schultal;Parkplatz Tischlertal. Wir haben hier im Apr. 2020 (Corona, alles geschlossen) für 2 Tage/Nächte problemlos gestanden. Nur offenes Grillen sollte man wg. Waldbrandgefahr unterlassen. Links führt vom Parkplatz ein Fussweg nach ca. 100m über eine Holzbrücke zu einem idyllisch am Bach gelegenen Picknickplatz. Altenau auf schönem Weg durch die Wiesen des Mühlenberg fussläufig erreichbar. Auch diverse Wanderungen von hier aus möglich!
516baab1-77b1-4e36-a91b-8f3b355b9e12;10.514774;51.761;Sankt Andreasberg - 8 Sonnenberg;Schöner asphaltierter Stellplatz für Wanderungen z.b. zum Oderteich (1,8 km) Der Weg dorthin ist mittelschwer einzuordnen. Ziemlich viel Furchen und Wurzelwerk.  Parken nur ab 6 - 22 Uhr erlaubt
980c5350-4b27-47ff-93d4-5e066cc009f2;10.38218;51.806348;Clausthal-Zellerfeld - ;Sehr Ruhiger Parkplatz, direkt am Waldrand idealer Ausgangspunkt für Wandertouren/ Fahrradtouren für einen Zwischenstopp über Nacht gut geeignet Platz für 1- max. 2 große Wohnmobile leicht geschotterter Waldboden als Untergrund
79400b8e-6dee-4435-ad8f-8ea277dd04b0;10.350102;51.785035;Campingplatz Prahljust;Schöner, etwas rustikaler aber sehr sauberer Campingplatz. Keine Reservierung notwendig. Stellplätze auch direkt am See möglich, teilweise nicht ganz eben. Schwimmbad im Preis enthalten, im
7238c7ad-6e2f-41fe-ad7d-3c8fe1e36900;10.447465;51.703719;Herzberg am Harz - L521;Wanderparkplatz Sieber. Jetzt mit übernachtsungsverbotsschild, da der Ort sehr verschmutzt wurde. Etwas abseits von der Straße die sehr wenig befahren ist. Sehr ruhig. Grenzenlose Möglichkeiten zum Wandern. Im Winter gibt es in der Nähe eine Langlaufloipe. Eine Alternative wenn der ausgeschilderte Stellplatz in Sieber belegt ist.
ebfb9f0d-e538-4fc5-93d2-b437510ea570;10.439087;51.81906;Campingplatz Okertalsperre;Toller Platz, super nette Betreiber , Sanitär top sauber? gerne wieder.
8eeed93c-00ec-4a1b-ba23-263a7e42abed;10.509032;51.797672;Altenau - L504;Einfacher Parkplatz ohne Verbotsschilder mit leichter Schräglage
fe109910-829b-4975-951f-79987b5e81b9;10.33167;51.77193;Clausthal-Zellerfeld - 8 An der Trift;Wanderparkplatz „An der Trift“. Ein breiter Schotterweg auf dem auch zur Ürbernachtung geparkt werden kann. Durch die Hanglage ist das Längsausrichten des Fahrzeugs hier nur bedingt möglich.
621b14fa-bc56-4b1f-b78c-3c9765f2549f;10.418396;51.694225;Herzberg am Harz - 40 Runde Wiesen;Kostenloser Wohnmobilstellplatz für 4 bis 6 (je nach Länge) Mobile neben dem Feuerwehrgebäude. Zufahrt über die Strasse , Tiefenbeek. Dort befindet sich eine Damen- und Herrentoilette in gepflegtem Zustand. 50 m entfernt ein Freibad. Bei dem hintersten Platz ist der Satelitenempfang nicht möglich. Wirklich sehr ruhig. Der angrenzende Bolz- und Spielplatz kann bei gutem Wetter vielleicht zu hören sein. Sehr gute Wandermöglichkeiten. Liebe Gemeinde Sieber, vielen lieben Dank für diesen Platz. Keine Ver- und Entsorgungstation.
6232d627-cc26-4fa1-9e70-82f817777d07;10.342459;51.79844;Clausthal-Zellerfeld - 10 Andreasberger Straße;Tankstelle für Gasflaschen. Sehr freundliches Personal!
413a0676-152c-4827-bd7a-7c8ea699e7f4;10.46875;51.69771;Osterode am Harz - Königshof;Befestigter Parkplatz im Siebertal am Beginn einer autofreien Straße in den Nationalpark Harz. Nicht besonders ruhig, da in der Nähe die L521 vorbeiführt, die von Motorradfahrern geliebt wird. Aber ein sehr schöner Ausgangspunkt für Wanderungen.
1ef69a38-227f-43c4-9330-1fa6b6d7303c;10.321897;51.759561;Harz Hideaway;Unser Harz Hideaway ist das ganze Jahr geöffnet!  Unser Naturcamping- und Tiny House Platz ist ein Ort des Rückzugs, daher der Name “Harz Hideaway“. Ein Platz inmitten der Natur, der Ruhesuchende und gestresste Menschen zusammenbringt, die mit unserem umfangreichen Sportprogramm, wie z. B. Wandern, klettern an unserer Kletterwand, Mountain-biking und den geplanten NaturSPA Angeboten sowie durch andere Aktivitäten wieder Energie tanken können.   Warum unbedingt zu Uns?  Weil wir kein gewöhnlicher Campingplatz sind!   Wir vermieten nicht nur Stellplätze für Camper sondern auch für Tiny Houses. Wir verleihen Picknickrucksäcke mit unseren Speisen aus der Besenkammer und Snacks aus dem Kiosk. So können Sie ganz individuell Ihren Rucksack bepacken lassen. In unserem Kaminzimmer können Sie sich mit einer Tasse Kaffee entspannt zurücklehnen und egal bei welchem Wetter die Natur genießen. Oder Arbeiten Sie ganz einfach von hieraus! Arbeiten und Urlaub zugleich? Das geht aber sowas von! Im Herbst und Winter haben wir eine Vielzahl an Lagerfeuer Plätzen zur Verfügung, wo sie sich gemütlich in große Decken einkuscheln können.   Leben mit der Natur  Wir wollen Glücksmomente erschaffen und diese in Einklang mit der Natur bringen. Naturnahes Campen, ohne wie bei herkömmlichen Campingplätzen in Reihe und Glied direkt neben seinem Nachbarn zu stehen, hat daher grösste Bedeutung für uns. Wir legen den Fokus stark auf Nachhaltigkeit und Verantwortung für die Natur. Insbesondere bei der Küchenphilosophie unserer Besenkammer, welche auf höchste Qualität und regionale Produkte wert legt sowie als auch auf vegane und vegetarische Speisen.  Unsere Vorhaben 2022  Um unserem Campingplatz den letzten Feenstaub zu verpassen, haben wir noch einige Besonderheiten vor, welche 2022 umgesetzt werden sollen.  Wir planen eigene Tiny Houses, Baumhäuser und Hütten zur Vermietung. Einen NaturSPA sowie eine Sauna, Bogenschiessen, einen Verleih für Mountainbikes, Waldkonzerte und noch vieles mehr!  Wir haben alles mit Liebe zum Detail eingerichtet, achten sehr auf Sauberkeit und freuen uns sehr, Sie hier begrüßen zu dürfen!
c5774da2-72ca-4111-a990-fb3fea296624;10.521487;51.723669;Sankt Andreasberg - ;Parkplatz. Kein Service. Naturlehrpfad und Straße in der Nähe, daher ein wenig Verkehrslärm.
f37603c5-d518-4777-84f9-ceaa337ffbba;10.323746;51.783663;Clausthal-Zellerfeld - B241;Kleiner Parkplatz mit Schotteruntergrund, ein bisschen uneben. Kurzer Fußweg zu einem der schönsten Seen Clausthals. Hier darf man auch baden gehen. Schöner Startpunkt für eine Wanderung oder Tour mit dem Mountainbiker.
2e9722e9-f81c-4e22-9f75-d22589d1c362;10.516521;51.714538;Sankt Andreasberg - Am Samson 5;Wohnmobile Grube Samson Neu. Ruhiger, grüner Platz in der Nähe von Sportplatz und Museum. Alle Nebenkosten im Preis inbegriffen, Strom kostenlos ohne Limit. Das ganze am Rande von St.Andreasberg, eines netten verschlafenen Ortes.  Die Kurtaxe ist pro Wohnmobil nicht pro Person.  Auch für große womos geeignet. Bezahlung im Touristenbüro ,Am Kurpark 9, zu Fuß in ca 500 m erreichbar.
4ed50956-b81f-4092-9355-4d066f6958d5;10.379545;51.696707;Herzberg am Harz - Unnamed Road;Platz direkt in der Natur. Mit Picknickplatz. Nur wenig genutzt. Naturbach direkt am Parkplatz. Guter Startpunkt zum Wandern im Nationalpark. Übernachten nicht erlaubt. Bis 22:00Uhr frei. Keine Versorgung, keine Entsorgung. Kein Handyempfang.
fdb09503-0612-4ea8-94a9-aee3dcc97ac4;10.350494;51.810868;Clausthal-Zellerfeld - 27 Haus-Herzberger-Straße;Parkplatz des Waldseebades direkt am See. Wenig Verkehr. Schön für einen Spaziergang um den See und 8 Min Fußweg vom Italiener Lucania entfernt. Dabei macht man einen schönen Spaziergang durch die "NUR Dach Häuser", eine Feriensiedlung mit kleinen Häuschen.   Lage direkt am Waldseebad. Hier der einzige See, an dem man mit Bademeister in der Umgebung baden gehen kann.   Platz gross genug für 50-70 Fahrzeuge, aber meist sind hier um die 5-10, meistens ist man ganz alleine.  Untergrund: Schotter, ebene Fläche  Im Winter wird hier der Schnee gelagert, daher dann nicht befahrbar.
a7c67540-2329-43f4-946a-e95dc4987327;10.53156;51.79773;Altenau - L504;Kostenlose Parkplätze (Keine Wohnmobile von 22:00 bis 06:00 Uhr)
d80b0d9d-dd4a-4f65-8e35-54e64fd29755;10.3333;51.80261;Clausthal-Zellerfeld - 5 Osteröder Straße;Wäscherei geöffnet von 8-22 Uhr
bdb0f29d-5eb0-4c8a-bbef-2e5ee9d359d7;10.364766;51.698172;Herzberg am Harz - Unnamed Road;Parkplatz direkt hinter dem Campingplatz. An einem Bach gelegen. Grillhütte in direkter Nähe. Auch als Picknickplatz zu nutzen. Kinderrutsche. Guter Ausgangspunkt für Wanderungen.
f8d50a01-bc3d-4729-8897-4a0c484ba7bb;10.427661;51.83576;Schulenberg im Oberharz - 17 Tannenhöhe;Parkplatz am Ende einer Sackgasse in der Nähe der Okertalsperre. In der Nähe am Waldrand Bänke zum Rasten.
e9f4c8fa-0323-4eb1-9f44-e09c40a38bfd;10.550827;51.774439;Sankt Andreasberg - 2 Oderbrück-Süd;Gebührenfreier, öffentlicher Parkplatz an der Hauptstraße. Im Winter stark frequentiert, übernachten verboten
b9234fbc-00ff-4beb-afc4-b9b9d95d3cf9;10.309459;51.740825;Osterode am Harz - Unnamed road;Ein Parkplatz an der Staumauer des Stausees. Stellplatz für Wohnmobile per Schild erlaubt. Ok öffentliche Toiletten. Übernachten laut Schild (typisch deutsch) nicht erlaubt
1e45bc29-d8c2-44d6-b038-c5df0dea898d;10.435049;51.837041;Schulenberg im Oberharz - 14 Wiesenbergstraße;Normales Parken über dem Campingplatz, ruhig, kostenloser Zugang zu den Toiletten und sehr schöne Aussicht
47312979-ef54-4739-bd8f-4803c57cebda;10.435338;51.837065;Schulenberg im Oberharz - 16 Wiesenbergstraße;Stellplatz auf Kies mit herrlichem Blick auf den Okerstausee inklusive der Brücken. Ansonsten schöner kleiner Ort. Sie können sich vorab im Tourismusbüro Altenau anmelden und zweimal am Tag kommt jemand zur Bezahlung und Kontrolle. Die Anzahl der Parkplätze ist nicht begrenzt. Bei dichter Parkdichte sind 15 Wohnmobile möglich. Brötchen können im nahegelegenen Sporthotel bestellt werden. Es gibt keine öffentlichen Toiletten mehr! Der Besitzer des Toilettenhauses hat gewechselt, sodass es nicht mehr verfügbar ist (bestätigt durch die Kassiererin).
c7d72f70-9b0f-4209-a6c5-ce5c3f6637f6;10.30715;51.77372;Clausthal-Zellerfeld - ;Kleiner Stellplatz mit einem Weg zum See direkt im Wald. Ruhige Nächte, wenig Verkehr.
2a3959cd-6860-4ca7-ad59-4bb2e40926cb;10.552319;51.77618;Sankt Andreasberg - 10 Oderbrück-Süd;Kleiner kostenloser Parkplatz für Transporter und Kastenwagen, perfekt für Wanderungen, direkt an der Straße.
c6c0d7de-1789-494e-8dff-7d19a54988e9;10.452103;51.83671;Schulenberg im Oberharz - 498;Große Fläche direkt an der Okertalsperre zum verweilen in der Nacht. Umgeben von Wald und einem kleinen Teich. Stehen in der Nacht wird geduldet. Ebene Fläche. Sehr ruhig.
a0007709-99b1-4e04-9af2-92491aff0755;10.30533;51.77274;Clausthal-Zellerfeld - Unnamed Road;„Holzumschlagplatz am Prinzenteich“
4ee6159a-f4cf-4f5e-82f1-1e496ed30db7;10.52403;51.70743;St. Andreasberg;Parkplatz am Sankt Andreasberg. Wir hatten bzgl. Übernachtung gefragt und durften hier mit Parkschein übernachten. Der Bikepark ist super und auch die Sommerrodelbahn sieht spaßig aus. Im Winter sind zwei Sessellifte und im Sommer einer in Betrieb. Oben am Ausstieg gibt es bis ca. 17h Mittagessen, Kuchen und Eis. An der Talstation sind öffentliche Toiletten. Das Restaurant „Sportlerklause“ sieht gut aus, hatte Montag leider Ruhetag, daher konnten wir es nicht ausprobieren.
07d7006d-1ab8-4b43-9722-d8710d148492;10.55049;51.784652;Altenau - B4;Parken an der B4. Sehr guter Ausgangspunkt für Wanderungen und Motorradtouren.
9d008ac4-57dd-4add-b7ed-abc06b88bf1f;10.451275;51.837796;Schulenberg im Oberharz - ;Einfacher Parkplatz für  Wohnmobil super  Bitte kein Müll liegenlassen sondern mitnehmen denn sonst ist hier ganz schnell eine Schranke vor
5e821baa-b3d1-44cd-a094-e0dce95693ba;10.3361;51.81351;Clausthal-Zellerfeld - 5A Am Alten Bahnhof;Wohnmobilstellplatz „Alter Bahnhof“ am Busbahnhof in Clausthal-Zellerfeld. Wird auch als Parkplatz für PKW genutzt. Öffentliche Toilette 30 m entfernt (laut Schild). Kurtaxe ist in der Touri-Info zu entrichten - ansonsten kostenlos. Bergwerkmuseum ganz in der Nähe.
ca236385-7c3c-415f-ae03-c15d035c66d7;10.536247;51.804067;Großparkplatz Brockenblick;Parkplatz an der Bavaria Alm mit Aussicht auf den Brocken. Für eine Nacht super. Vorsicht! Platzwart  gibt falsche Infos bezüglich der Uhrzeit, wann man den Platz verlassen soll, laut Platzwart sollte ich um 6 Uhr wegfahren. Das kam mir komisch vor also habe ich den Betreiber angerufen und es hat sich ergeben, dass ich im laufe des Vormittags abfahren darf, ohne etwas dazu zahlen zu müssen.
66b808a7-1aee-4304-abf8-afe745c1da48;10.440412;51.839212;Schulenberg im Oberharz - L517;Parkplatz ohne Wohnmobil verbot. Direkter Zugang zum See. Direkt an einer wenig befahrenen Straße.
4567330c-98a3-433e-9012-389747a709e7;10.371149;51.830951;Clausthal-Zellerfeld - 13 Sonderweg;Parkplatz mit Schotter 150 Meter von einem Badesee entfernt mit vielen gemütlichen Badebuchten und Grillmöglichkeiten
e27fe24c-e560-45c2-99f9-d78d5e5267aa;10.45117;51.83877;Altenau - B498;Flacher Parkplatz in der Nähe des Wassers. Neben der wenig befahrenen Straße. Genügend Platz für 2-3 Camper.
cc41e865-9efe-48d3-8faa-c121755d4f5d;10.44263;51.841204;Schulenberg im Oberharz - 2 Okertalsperre;An der Straße am Stausee geht es über die Bordsteinkante hoch auf einen Weg der steil den Berg hinauf führt. Nach einigen Metern scharf rechts abbiegen und weiter steil den Berg hinauf. Nach etwa 100 weiteren Metern befindet sich das Ziel auf der rechten Seite.  Man hat Ausblick auf den See. Die Straße ist zwar zu hören, aber nicht zu sehen. Nachts ist es ruhiger.
9f4f21b1-ef1d-4e1d-a3b9-43d5cdea90c6;10.44366;51.84116;Schulenberg im Oberharz - 2 Okertalsperre;Kleiner Seitenparkplatz an der Straße mit Schotter. Etwas abschüssig, aber noch okay. Schöner Ausblick, guter Startpunkt zum Wandern und zum Mountainbike fahren. Auch mit Hunden äußerst entspannt. Nachts war es schön ruhig mit einigen anderen Van-Reisenden, die dort ebenfalls genächtigt haben. Keine Verbotsschilder hinsichtlich Nachts dort stehenbleiben. Tagsüber viel los und viel Verkehr, aber da ist man ja eh unterwegs. Abends wird es ruhig.
028e3241-b7f6-46c9-8611-6e72961cc6a9;10.390007;51.837827;Clausthal-Zellerfeld - 3 Festenburg;In 04/24 neu angelegter Platz. Ein absoluter Traum. Die 6 Womo Plätze gehören zur Hotelanlage. Anmeldung in der Rezeption. Hier kann auch das tägliche Frühstück Buffett zugebucht werden. Restaurant und Bar ist ebenfalls vorhanden. Nachts absolute Stille und tagsüber etwas Trubel durch Wanderer und Hotelgäste. Unten im Wald ist ein malerisch schöner See. Zahlreiche Wanderwege gehen direkt am Platz los. Weitere Besonderheiten:An der Rezeption erfährt man wo man das kleine aber feine hoteleigene Schwimmbad nutzen kann. Der Spielplatz ist groß und in gutem Zustand. Nebenan noch eine Minigolfanlage. Das gesamte Personal ist freundlich und zuvorkommend! Alles in allem ein echter Geheimtipp. 
ee3670a1-51f2-418d-8478-fee046ec55b2;10.447415;51.840993;Schulenberg im Oberharz - L517;Parkplatz an der straße, direkt am wasser mit bademöglichkeit, campen möglich im wald auf der anderen straßenseite.
07b69f9c-e34d-476b-a04a-56d468eaf8ce;10.50255;51.68997;Sankt Andreasberg - ;Platz, der vermutlich auch für das lagern der Holzwirtschaft genutzt wird (sieht man auf Sattelitenfotos in Maps). kleiner Fluss der zu hören ist, anliegende Straße nachts sehr ruhig. Wir blieben von 21:30 bis 9:30 und sind niemandem begegnet.
902c9313-a49b-40e4-af1f-02b0b376c373;10.349974;51.827691;Clausthal-Zellerfeld - 78 Goslarsche Straße;Erbprinzentanne Kleiner Parkplatz direkt neben der Straße und direkt am See. Schöne Aussicht über den See. Vermutlich kann man in dem See baden, konnten wir nicht testen. Verkehr auf der Straße hält sich zumindest abends in Grenzen bzw. nachts recht ruhig. Die Aussicht entschädigt sehr.
765877cc-a511-42cc-92eb-d4017cecec6c;10.31283;51.80777;Clausthal-Zellerfeld - 8 Am Ottiliaeschacht;Ruhiger Platz für kleine Camper, geschotterter Untergrund. Unterhalb vom Ottiliae Schacht in Clausthal-Zellerfeld. Keine Ver- oder Entsorgungsmöglichkeiten. Kein offizieller Parkplatz. Ideal für eine Nacht. Ins Zentrum mit Gaststätten ca. 10 Minuten zu Fuß.
89109f6e-b1e7-4ca3-9dcd-fcf528cd289a;10.320535;51.82268;Camping Waldweben;Campingplatz Waldweben
996b615c-f32c-4a30-ac98-f5b2d37160ab;10.292926;51.803081;Clausthal-Zellerfeld - Hüttenstraße;Kleiner schöner Rastplatz. zwischen Rastplatz und Straße sind ein paar Bäume, sodass man die Straße nur hören kann. dort fließt direkt die Innerste lang.
5b8ad987-6ead-4238-9749-49e9b6e5684b;10.284314;51.727353;Campingplatz Eulenburg;Wohnmobilstellplatz der zum angrenzenden Campingplatz gehört. Sanitär dessen darf mitbenutzt werden.
59cd2dfa-4e50-4629-a599-3d0a48c2b427;10.528883;51.838529;Bad Harzburg - ;Großer kostenfreier Parkplatz (ca. 25 Parkplätze) direkt an der Bundesstraße. Wohnmobile sind zwischen 22 und 6 Uhr nicht erlaubt.
9c65c0e5-853a-49f9-9127-abe171069b11;10.349982;51.846677;Camping Le Kreuzeck;Campingplatz Das Kreuzeck. Sehr schöner Platz an einem Stausee mit viel Wald drumherum. Die Sanitäranlagen sind neu und sehr gut und sauber. Hunde sind am Platz erlaubt. Sehr viele Ausflugsmöglichkeiten in der näheren Umgebung.
eee17790-6870-4dca-b792-3ebb9fdbc43b;10.470723;51.858129;Romkerhalle;Parkplatz an der Straße, nah an Wanderwegen, tagsüber viele Kajakfahrer.
73c9d1b8-ff27-492b-9a99-1a13850e9109;10.309576;51.833165;Wildemann - Unnamed Road;Ganz ruhiger Platz mitten im Wald super zum Wandern und Radfahren ohne Versorgung. LTE funktioniert
8ccc1f7b-8e24-4813-9a09-b02389ffe396;10.34739;51.669;Herzberg am Harz - Unnamed Road;Schöner Parkplatz in einem Waldstück , zwar direkt an der Straße aber dennoch zum Parken und Übernachten möglich . Vor dem Parkplatz rechts gehend mit ca 8 min Laufweg ein schöner Wasserfall mit Aussichtspunkt.
90fd4fe1-bb9e-4882-a337-0e101bae7ac6;10.319199;51.678624; - K7;Der kleine Parkplatz liegt direkt einer absolut ruhigen sackgassen landstraße . es fließt dort auch ein kleiner bach und man kann wandern oder mit den hunden spazieren gehen. auch für eine pause ist der platz sehr nett.
59b6d164-9404-458f-85e7-f8b1c25db77f;10.261523;51.736288;Osterode am Harz - 58 Alte Harzstraße;Schöne ruhige Plätze vor einem Sportplatz oberhalb von Osterode
87f7aac2-6a69-4b3e-a0e7-fe18a47023d5;10.330264;51.847452;Goslar - 1 Am Grumbach;Schöner, recht großer Parkplatz in der Nähe des Spielplatzes und des Liebesbankwegs. Man hört die Straße, aber wir haben trotzdem zwei schöne Nächte hier verbracht.
999d9783-c7bd-4633-bb78-f79011ba4830;10.331236;51.848174;Goslar - Wiesenstraße;Ein öffentlicher Parkplatz in der Nähe von verschiedenen Badeseen. Auch der Liebesbankweg kann hier gelaufen werden. Stehen über Nacht wird geduldet. Liegt direkt an der Hauptstraße, aber Nachts sehr ruhig.
dfb14c15-6166-4333-b56b-92365a7e8fa7;10.507609;51.662699;Bad Lauterberg im Harz - L520;Ein Waldweg, 3 km hinter Bad Lauterberg Richtung Sankt Andreasberg, auf der rechten Seite, kein Verbotsschild, wunderschön ruhig, zwei Bäche zur Erfrischung, Wanderwege zum Matthias Schmidt Berg
e048df27-d036-46e2-a56c-a26013c7130b;10.315315;51.67743;Herzberg am Harz - ;Ruhigen,ebener Schotterparkplatz. Kaum verkehr,allerdings direkt neben Bahnschienen. wir haben hier trotzdem eine sehr angenehme Nacht verbracht.
a7e0fba6-c5e3-4690-a716-792103598622;10.259163;51.728286;Osterode am Harz - 30 Bleichestelle;Kostenloser Großparkplatz. Von hier aus ist man in gut 5 Minuten am Marktplatz. Der Weg in die Altstadt ist sogar vom Parkplatz aus ausgeschildert. Wenn man sich in den hinteren Bereich stellt, könnte man wohl sogar übernachten.
47e7304f-2912-441f-9869-780b5ae6963f;10.269042;51.808595;Harz - Unnamed Road;Grosser Wanderparkplatz im Wald etwas von der Strasse entfernt. Absolut ruhig. Sat- Empfang problemlos. Herrliche Wanderwege direkt vom Platz aus. Für Hundebesitzer ideal..
1e31c05b-bd22-40de-bf5a-5bbbfb962869;10.342897;51.857134;Wohnmobilstellplatz an der Stabkirche in Goslar;Parkplatz direkt am Liebesbankwanderweg. Wasser gibt's 60 Liter für 2 Euro. Sonst bietet der Platz nichts weiter. Leider waren darum auch Spuren der Camper im Wald zu sehn. Eine Toilette empfiehlt sich hier. Sonst ist es in der Nacht ruhig. Für kostenlos kann man nicht meckern.
d80fe0d0-0349-4c1b-87b2-b5bf8f2442b0;10.60348;51.731523;Boutique-Hotel THH622;Stellplatz für einen VW-Bulli oder vergleichbares Fahrzeug  - Inklusive Nutzung der Duschen - Inklusive Strom und Wasser - Optionales Frühstücksbuffet - Maximale Fahrzeuglänge: 5,2 m  Bitte den Stellplatz vor Anreis buchen
7dc18e1c-874f-4943-9672-db51646846fc;10.59344;51.712677;Braunlage - 4 An der Waldmühle;Kleiner Schotterparkplatz neben der Straße. Von Bäumen umgeben. Ruhig genug für eine Nacht.
c2f106d6-0b04-4ba5-a681-077c96e03d94;10.336575;51.856349;Goslar - ;Neuer Parkplatz am Ortseingang. Keine Beschränkung. Leicht schräg.
f40cf3fd-4b56-48f8-b67e-b0c8cc4227fc;10.60367;51.72448;Braunlage - 6 Flurweg;Kostenfreier Wanderparkplatz am Rande eines Wohngebietes als Ausgangspunkt für Biketouren, Wanderungen oder zum Skigebiet Wurmberg.
7d0e9fa2-8176-42cf-b250-91b66a3c00e9;10.609767;51.737062;Braunlage - 1 Kegelbahnweg;Guter Platz, um Wanderungen im Harz zu starten. Möglichkeit, auf den Wurmberg zu wandern. Wenn kein Schnee liegt, ist hier eine Riesenfläche. Tagsüber ist die Straße gut belebt (am Wochenende) , nachts sehr ruhig! Wir waren im Winter hier, haben eine Nacht hier verbracht, nachts war es angenehm.
323f4e9d-b1ce-4848-bfa8-1b24c9516bef;10.3424;51.85999;Goslar - 2 An den Teichwiesen;Großer Schotter-Parkplatz direkt am Bikepark/Liftstation
da9cbc90-3f70-48a9-befb-8c4160273fd5;10.273626;51.819961;Wildemann - 21 Im Schwarzewald;Schöner Parkplatz mit direktem Zugang zum Bach. See ist zu Fuß in 3 Minuten zu erreichen, einfach der Beschilderung Hundewald folgen. Bitte lassen Sie keinen Müll herumliegen.
9c16f566-cf02-4c1f-b4d0-e2c6314c99ae;10.5975;51.712799;Camping Braunlage;Ein wunderschöner Ort in einer wunderschönen Umgebung. Viele verschiedene Stellplätze in verschiedenen Höhen. Die Sanitäranlagen sind neu. Brötchenservice möglich, morgens Lieferung an den Stellplatz. Restaurant vor Ort, nur montags geschlossen.
2bd3f148-8d75-4dc1-83a7-aacdba9f7585;10.60973;51.73479;Braunlage - 3 Karl-Röhrig-Straße;Idyllischer Platz. Liegt in einer wenig befahrenen Straße an einem schönen Bach. Haben ihn als Ausgangspunkt für eine Brockenwanderung genutzt.
013cb241-0e93-4c7d-bb6c-a95bf99eaa72;10.324045;51.853705;Goslar - ;Schotter Parkplatz. Nahe am See mit Öffnungszeiten von 11 bis 18 Uhr. Anlage kostenfrei mit Spielplatz. Wird abends aber abgeschlossen. Es gibt auf der anderen Seite des Sees am Waldrand noch Bademöglichkeiten außerhalb der Öffnungszeiten.
5d553793-35a5-4493-872e-d0d79523003e;10.611936;51.732365;Braunlage - 26A Harzburger Straße;Neben der Seilbahn, zu Fuß zu allen Restaurants, Geschäften und Pubs. Kostenlos von 18:00 bis 08:00 Uhr. Parken für Wohnmobile von 22 Uhr bis 8 Uhr nicht erlaubt
a1cfd620-0ee5-4b2b-be6f-f0b042a08e43;10.55669;51.67427;St. Andreasberg - 27;Parkplatz an der Straße, nahe des Oderstausee. Zur Straße ein Zaun so das auch der Hund frei laufen kann. Über eine Brücke erreicht man den Stausee in 20-25 Gehminuten. Für den morgendlichen Hundespaziergang perfekt.
684d97e2-77fb-4d28-bf82-38d28d17acee;10.547585;51.85109;Bad Harzburg - Radau-Waterfall;Parkplatz am Loipenstart am Eckerstausee und Brocken.
f8cdb0b0-5c48-4208-9689-d38f2f4df05c;10.339178;51.657128;Herzberg am Harz - 23 Sieberstraße;Kostenfreier Stellplatz zentrumsnah für eine Nacht und ein Mobil. Sieberstrasse 16-18 die offizielle Adresse. Ein Parkplatz der nicht wirklich attraktiv ist. Daher nur bedingt empfehlenswert.
0e76f5f4-d140-46a9-b03c-910b970aab1b;10.2499;51.722698;Osterode am Harz - 14 Schwimmbadstraße;Der Stellplatz gehört zum ALOHA Erlebnisbad (die Gebühr wird bis zur Hälfte des Eintrittspreises angerechnet). Er darf höchstens 2 Nächte genutzt werden und nur durch Wohnmobile mit eigenem WC.
9b16c20f-7cbb-4a8a-b939-804c7b8af277;10.24574;51.73013;Osterode am Harz - 17 Sösepromenade;Platz an der Sösepromenade. Für eine Nacht okay, wenn man sich größtenteils im Fahrzeug aufhält. An der Promenade ist eine große Wiese
ed3396b2-911e-444c-accb-6c4d102f73de;10.614989;51.7276;Braunlage - 21 Elbingeröder Straße;Kostenloser Parkplatz. Stadt, Bergbahn und Schwimmbad sehr nahe. Nachts ruhig
4dacc0c3-1f47-4c64-917f-8dc5f66abe3b;10.507993;51.649694;Bad Lauterberg im Harz - B27;Einfacher Parkplatz, direkt am Stausee und an der Bundesstraße. Nachts aber kaum befahren und ruhig. Gut für eine Nacht.
49337ed4-994c-4cbc-b013-ae63e5f4f26c;10.329649;51.655029;Herzberg am Harz - 1 Schloß;Parkplatz am Schloss sehr ruhig    10 min Fußweg in die Innenstadt    Ausgangspunkt für Wanderungen
d98cf1b5-f406-4d2c-bcc1-ef4564e863b4;10.23413;51.74008;Osterode am Harz - ;Stellplatz gut für ein oder zwei Tage.
cedbdbab-cffe-4e53-84f5-59f3b63003dc;10.40414;51.637681;Herzberg am Harz - ;Parkplatz an der Einhornhöhle. Großer Parkplatz im Wald . Parkmöglichkeit von 6-20Uhr. Gute Zufahrt über befestigte Straße. Sitzmöglichkeiten , Holzbänke und Holztische vorhanden. Wir waren mit unserem Wohnmobil 7m dort. Gut geeignet für Spaziergänge und Entdeckungen.
3ff94242-096c-4da5-bbc3-f17c9bf34c5f;10.629356;51.750542;Braunlage - ;Großer Parkplatz mitten Harz an der Wurmberg-Skipiste. In der Skisaiso kann es sehr voll sein.  Schöne Wanderwege.  Parken für Wohnmobile von 8 bis 22 Uhr
4a5bab4f-207b-45f3-b7ee-5c3d48e502eb;10.420699;51.883703;Goslar - 2 Bergtal;Einfacher Waldparkplatz, absolut ruhig, wer es nicht ganz so abgeschieden mag bleibt ca 600 m davor auf dem Parkplatz des Bergwerk, der ebenfalls frei ist, nachts auch erleuchtet. An dem kleinen See zwischen beiden Platzen gibt es gemütliche Bänke zum picknicken. Guter Ausgangspunkt für Wanderungen. mit dem Fahrrad ist man in 10 Min. im Zentrum von Goslar (2,5 km). Zurück dauert es bergauf etwas länger.
4b7cf1e2-1adb-49e4-bfda-cb6f8dc3ea1f;10.46004;51.637553;Bad Lauterberg im Harz - 17 Lutterstraße;Grosser Waldparkplatz. Auch für grosse Mobile geeignet. Sehr ruhig, da die Straße nur noch zu einem Waldcafé führt.
43a5b4a4-845b-42be-a893-21a783db28a6;10.508001;51.644038;Bad Lauterberg im Harz - ;Traumhafte Aussicht ähnlich wie beim Campingplatz in der Nähe nur ohne Infrastruktur, dafür aber kostenlos. Vögel singen, Wasser rauscht. Man liegt in einer Flugschneise (Leipzig Halle). Allerdings trübt es den Standort kaum dank der traumhaften Aussicht.
890ed25b-9dd9-4158-a781-7d5a0e319056;10.513954;51.6454;Camping Glockental;Rustikaler in die Jahre verkommener Natur-Campingplatz an der Oder-Staustufe. 1 Person 1 Bus mit Strom pro Nacht 26,-€
d8d0fdda-6038-4b8b-a231-1be584730904;10.225516;51.74897;Osterode am Harz - 7 Rolandsweg;Waschanlage für Wohnmobile und LKW. Big Wash Osterode. Kombinierte manuelle und automatische Wäsche. Dachreinigung etc. inklusive.  Anfahrt über Firmengelände Obermann, dann links halten, nicht von der Werkstatt irritieren lassen. Waschanlage ist gegenüber der LKW Ladebuchten der Spedition.  Öffnungszeiten: Montag bis Freitag 8-17, Samstag 7-12.
7aeec118-7241-4be8-aa1c-6f2286b42511;10.385847;51.635694;Campingplatz am Blockhaus;Camping « Blockhaus «  a Scharzfeld     Natur Camping… super für Bulli und Vans geeignet
ab0890e6-3491-4758-95bc-47421b4f2210;10.243269;51.814086;Bad Grund (Harz;Ausweichparkplatz von den Iberger Tropfsteinhöhlen. Am Waldrand neben einem Sportplatz gelegen. Ruhig und eben. Bis zum Ortskern oder zu der Tropfsteinhöhle sind es ca. 700 Meter. Guter Standort für Wanderungen, das Uhrenmuseum, oder den Schacht Knesebeck zu besuchen. Im Ort gibt es Restaurants, Cafés und einen gut sortierten Supermarkt. Die Zufahrt erfolgt über eine schmale Straße.  Fahrer ganz großer Fahrzeuge sollten sich das vorher anschauen.
c0a7d029-0fce-4d80-9dbb-08a993c912fd;10.456804;51.631285;Bad Lauterberg im Harz - 23 Weideweg;Kleiner Waldparkplatz für 1 bis maximal 2 Camper. kein Verbotschild etc.. In direkter Nähe zum Ort. Wenig bis kein Verkehr.
b33567e3-15d9-4e23-be1b-99a7898ed333;10.636932;51.735107;Elend - B27;Schöner Platz für eine Nacht. Nachts sehr ruhig, schöner Spot für ein Frühstück in der Sonne. Direkt am Hexenstieg.
9a82ecbc-56cb-4aaf-bba0-8d24828d890a;10.398834;51.889753;Harz Camp Goslar;Super modern und neu, was Sie von einem seriösen Campingplatz 2022 erwarten. Rezeptionistin spricht Englisch, kleiner Laden, kleine Bar und zweimal pro Stunde kostenloser Bus nach Goslar. Viel Straßenlärm, wenn Sie darauf empfindlich reagieren. Ansonsten perfekt für Erwachsene.
601a18a2-7549-4361-9873-eb3899ebb0ef;10.4875;51.6337;Wohnmobilstellplatz Bad Lauterberg im Harz | Vitamar;Stellplatz an der Therme mit Wellenbad. 5 markierte Plätze nur für Wohnmobile. Während der Öffnungszeiten des Bades darf man die Toilette im Eingangsbereich nutzen. Platz ist kostenlos. Flach und gepflastert. Befindet sich in einer Sackgasse. Bad Lauterberg hat auch eine Innenstadt. Freitags ist meistens Markt.
d042106f-b2dd-4bce-9076-3087e6c5d99a;10.483568;51.632747;Bad Lauterberg im Harz - 76 Sebastian-Kneipp-Promenade;Parkplatz zwischen Schwimmbad Vitamar und dem Revita Hotel. Da der Wohnmobil Stellplatz mit fünf Fahrzeugen oft voll und eng ist haben wir schon öfter diesen Parkplatz genutzt. Es ist nie viel los und auch in der Nacht sehr ruhig. Zum Schwimmbad nur 200 m zu laufen und an der Oder entlang unter das Revita Hotel verläuft ein Weg zum Kurpark. Unterm Hotel geht eine Brücke über den Fluss direkt zu den Wanderwegen am Berg.
da53c50b-0317-4a54-9341-a3f02216d829;10.41782;51.89184;Goslar - 99 Rammelsberger Straße;Ruhiger geteerter Parkplatz zum spontanen Übernachten in Goslar mit wunderbarem Blick auf den Rammelsberg Stollen. Zufahrt etwas eng. Für Liner eher ungeeignet.
a631a7cd-b236-4e3a-8c15-316354558779;10.46011;51.62888;Bad Lauterberg im Harz - 13A Kupferroser Weg;Sehr schöner Ort direkt an einem Fluss gelegen sehr ruhig nachts.
f61a7cda-a2e5-453f-9feb-b6baade690cb;10.42625;51.89251;Goslar - 103 Rammelsberger Straße;Kleiner Naturparkplatz
c458d000-9d85-4787-b7ca-5c604f88b29c;10.41736;51.62687;Bad Lauterberg - ;Kleiner Parkplatz im Grünen an einem kleinen Bach. Es ist ruhig und man kann von hier aus schöne Wanderungen starten.
d81feea3-8148-4677-a32c-286cebd575c8;10.599256;51.677159;Osterode am Harz - L601;Schöner Parkplatz zwar direkt an der Straße aber gegen Abend sehr ruhig. Eine Schutzhütte und eine Sitzgelegenheit gibt es auch. Ausgangspunkt von schönen Wander Routen. Für eine Nacht bestens geeignet.
2dd39852-fff5-4517-93a0-fbcded29d543;10.42866;51.893969;Goslar - Bruchchaussee;Parkplatz auf dem „Blauen Haufen“. Links von der Straße ein kleines Plateau mit super Aussicht auf Goslar. Dort allerdings in den Abendstunden am Wochenende oft einige Autos, die ebenfalls „die Aussicht genießen“. Rechts von der Straße ein größerer Schotterplatz, auf dem es ruhiger ist. Dieser ist allerdings sehr zerfurcht und sehr schräg. Es gibt zwei Mülltonnen. Zum Maltermeister Turm (Restaurant) sind es ca 400m durch den Wald.
296a64c9-0d1e-4039-83eb-f0614ed8cfee;10.53716;51.87677;Bad Harzburg - 1 Waldstraße;Parkplatz für 5-6 Autos. Wir hielten mit unserem Wohnmobil (7 Meter) an und machten eine Wanderung. Eine ortsansässige Dame warnte uns, dass wir eine Geldstrafe bekommen würden, wenn wir hier oder auf dem anderen Parkplatz weiter unten an der Straße übernachten würden, und dass die Polizei oft morgens käme, um nachzusehen. Einheimische mögen Camper in dieser Gegend nicht. Wir sind gegangen.
349b939f-04c4-4363-890a-5041fcf7c739;10.477798;51.890986;Goslar - 7 Sonderweg;Tagesparkplatz in der Nähe des Beginns eines Wanderweges, der zur Mausefalle und zum Romkerhaller Wasserfall führt.
f210fe85-f491-457e-a3d6-691167358f71;10.475495;51.628619;Bad Lauterberg im Harz - 8-10 Am Scholben;Oberhalb vom ehemaligen Sanatorium Bernhard. Gepflasterter Platz am Wald, in Sackgasse
a3a666fb-a9e0-4d9e-acb5-1b8bd48548ab;10.291218;51.863618;Langelsheim - 1 Am Maaßener Gaipel;Maaßener Gaipel Parkplatz 50m neben der Pizzeria. schöner Ausblick über Lautenthal.  mit Sitzgelegenheiten
cb28eb93-5aa1-445f-bd08-8375af34084a;10.558862;51.86849;Bad Harzburg - 1 Nordhäuser Straße;Großer Parkplatz gegenüber dem Wohnmobilstellplatz. Kostenlos ab 18 Uhr bis 8 Uhr Bezahlt ab 8 Uhr Wir könnten hier problemlos eine Nacht verbringen.
e813c7fa-05ab-483b-b3ac-27f7d98445c5;10.369586;51.630576;Wohnmobilstellplatz am Südhar;Wohnmobilstellplatz am Südharz  Wohnmobilstellplatz am Südharz. Stellplatz am Ortseingang, mit Werkstattanbindung, Gasflaschentausch und ein kleiner Shop mit allem was der Wohnmobilist mal brauch. Von hier aus sind schöne Radtouren und Wanderungen möglich! Großzügig angelegt mit Sanitäranlagen
95294ffd-3f6d-418a-bb06-455c8c87682c;10.558374;51.869013;Wohnmobil-Stellplatz an der Sole-Therme;Stellplatz direkt am Stadtrand, zwischen der Therme und dem Wildkatzen-Erlebnispfad gelegen, kleiner Teich auf dem Platz. 40 befestigte Plätze und Eislaufplatz im Winter, 80 Plätze im Sommer (von April bis Ende Oktober). Keine Reservierung möglich.
30be16c0-4148-42a3-ac1f-c8860ebd8d2a;10.233867;51.819866;Bad Grund (Harz;Parkplatz 2 am „Weltwald“. Nachts recht ruhig. Sind keine Übernachten Verbotsschilder. Total interessant. Sind Bäume und Pflanzen vom Europäischem, Amerikanischen und Asiatischem Kontinent. Tolle Wanderwegrunden mit unterschiedlichen Themen.  Ca. 500 m stehen mehrere Tisch, Bankkombinationen zum Verweilen oder Picknicken. Super Konzept. Und wenn schon koten in der Natur. Ein Gartenschäufelchen oder Harke die Hinterlassenschaften vergraben, macht für uns und andere die Umwelt besser und zum Genießen nicht zu ekeln.
1de07b9b-b85c-4e29-9190-d0e3908cd3a3;10.376965;51.627692;Herzberg am Harz - 6 Am Anger;Gut befestigter Parkplatz. Nebenan verläuft ein kleiner Fluss. Die Bahnlinie nimmt man kaum wahr.
d718de38-81b6-4307-9ae8-2b409daa6a88;10.228865;51.816102;Bad Grund (Harz;P 1 Parkplatz oberhalb von Campingplatz. Oben an Straße gehört zum Weltwald. Sind keine Übernachten Verbotsschilder. Total interessant. Sind Bäume und Pflanzen vom Europäischem, Amerikanischen und Asiatischem Kontinent. Tolle Wanderwegrunden mit unterschiedlichen Themen. Haben Verbindung zu Parkplatz 2. Hier oben stehen mehrere Tisch, Bankkombinationen zum Verweilen oder Picknicken. Außerdem beginnt hier der Erlebnispfad für Kinder. Und der Mammutbaumpfad mit mehreren Mammutbäumen. Sie sind  zwar nicht so groß wie in Kaliformien, aber jetzt schon beeindruckend. Und in 500 Jahren erst... Super Konzept. Und wenn schon koten in der Natur. Ein Gartenschäufelchen oder Harke die Hinterlassenschaften vergraben, macht für uns und andere die Umwelt besser und zum Genießen nicht zu ekeln.
65743718-af8e-49a6-b692-2549699e7850;10.2283;51.81545;Campingplatz & Wohnmobilstellplatz Hübich-Alm im Harz;Hübich-Alm: Der familienfreundliche Campingplatz im Harz mit Weitsicht auf das Weserbergland liegt in einer malerischen Harz-Karstlandschaft. Hier kann jeder die Seele baumeln lassen und den Harz genießen. Der Campinplatz auf ca. 430 Höhenmetter ist perfekt für Naturliebhaber, die Ruhe und Erholung suchen.
3e39c97a-175f-4e42-aeb1-ac698bd90fbe;10.528138;51.88255;Bad Harzburg - 1 Am Silberborn;Ein sehr schöner Parkplatz zum übernachten, sehr ruhig. Guter Ausgangspunkt zum Wandern.
90769216-a647-4956-afe3-f525f2988834;10.394206;51.894959;Goslar - 8 Nonnenberg;Schotterparkplatz, leicht schräg, für alle WoMos geeignet. Zugang zu vielen Wanderwegen, großer Spielplatz. Möglichkeit zur Einkehr ca. 300m (Steinbergalm). Von dort tolle Aussicht auf Goslar.
a5d217a1-cc69-4ae5-a2f4-72e2acf1af51;10.41217;51.62298;Bad Lauterberg im Harz - 2C Domänenweg;Sehr ruhige Lage in einer Sackgasse. Der Fluss Oder gleich nebenan.
970ca3ca-dba5-4a7d-a4f1-d2953b2cdb6f;10.538328;51.882952;Bad Harzburg - 30 Silberbornstraße;Kleiner Parkplatz, der tagsüber stark frequentiert ist und von Spaziergängern des Wildgeheges genutzt wird. Abends ruhiger Platz an einer wenig befahrenen Straße. 2-3 Stellplätze für eher kleinere Wohnmobile (6m). Rundgang um Tierpark und Golfplatz, ca. 3km ist empfehlenswert.
2cc17e89-d40f-480b-955f-c5006e10a7c1;10.511092;51.892002;Harz Camp Göttingerode;Campingplatz nahe Bad Harzburg. Es gibt Standardplätze ohne Bad und Komfortstellplätze mit eigenem Bad. Auf den Standardplätzen herrscht freie Platzwahl ohne Parzellierung. Die Entfernung zum nächsten Stromanschluss beträgt bei den Standardplätzen teilweise über 25m.  Sanitäranlagen sind nicht modern aber gepflegt. Duschen kostet allerdings extra.  Der Zugang zum Campingplatz ist ohne Schranken oder Tore möglich.  Für die Entsorgung der Toilette gibt es ein extra Häuschen und zusätzlich einen Automaten.
f6e3d58f-56eb-4786-ba3b-207cd83c9237;10.2867;51.8708;Langelsheim - 7C Kaspar-Bitter-Straße;Stellplatz in Lautenthal, ruhig, groß, mit Liegewiese. V E, Strom gegen Bezahlung. Bäcker und Harzer Schnitzelkönig in der Nähe.
b122b51e-e37a-48af-b7a5-d1eb82520b8d;10.61866;51.67957;Osterode am Harz - L600;Nullpunkt Parkplatz
9e6ccc19-2d08-4949-b73a-0a540c485893;10.42838;51.90206;Goslar - 1A Wallstraße;Parken bis 6 m in unmittelbarer Nähe der Goslarer Altstadt. Der Platz liegt in unmittelbarer Nähe zur Kaiserpfalz und man erreicht den Marktplatz in wenigen Minuten.
1c627163-29a1-42a9-ac85-3b020ec308ee;10.489655;51.620432;Bad Lauterberg im Harz - 75 Wiesenbek;Schöner ruhiger Stellplatz im Wald. Auf kleinem Parkplatz. Wanderwege und durch die Bäume Blick auf den Teich, mit gegenüberliegendem Campingplatz. Parkplatz ist recht eben, und auch größere Wohnmobile können hier stehen. Anfahrt dafür allerdings recht eng und holprig.
82057cd1-7fc2-4319-9c2b-e57635ee6a21;10.662516;51.73705;Elend - B27;Parkplatz für Wanderungen, für eine Nacht gut geeignet
c4e332a6-bcb0-4c55-b8bb-618ae8994442;10.530808;51.893065;Bad Harzburg - 28A Herbrink;Großer Parkplatz für Nutzung am Tag, Direkt am Sportpark
10317436-e381-4a0f-8914-cd231234a7cb;10.667381;51.764295;Wernigerode - 1A Kirchberg;Parkplatz für den Tag ( nur 8-20 Uhr) als Ausgangspunkt für Wanderungen oder zum Klettern. 5 eigene Wohnmobilstellplätze. Parken kann ausschließlich mit ec-Karte!! (wirklich ausschließlich!) gezahlt werden.
9c37dc41-a7b1-4600-99ef-29fde46056c2;10.28792;51.87836;Langelsheim - 1 Kiefernweg;Wir suchten nach einem Wanderevent, einen Platz, an den wir in unseren Bus nächtigen konnten. Es ist eine asphaltierte Fläche. Es stand nirgendwo ein Schild, das es verboten wäre hier zu parken etc. Wir konnten also ungestört eine Nacht dort stehen bleiben. Direkt davor befindet sich eine Straße und neben an ein Ferienhaus. Rundherum nur Wald. Man hat also seine Ruhe. Früh kommen jediglich ein paar Hundebesitzer und Radfahrer vorbei. ?
c73174ce-b4e8-477d-a4ac-ac63f9bc8260;10.49019;51.61707;CampingPark Wiesenbeker Teich;An einem schönen Bergsee. Oberhalb von Bad Lauterberg.
f84720ca-68ca-4162-ad0f-dba169a66187;10.546989;51.888988;Bad Harzburg - 8 Gestütstraße;Hinter dem Bündheimer Schloss befindet sich ein großer Parkplatz. Der geschotterte Platz liegt direkt am Schlosspark (Bach, Teich, Spielplatz). In ca. 2-300m findet man auch Einkaufsmöglichkeiten (Penny, Netto), ebenfalls in der Nähe auch eine Tankstelle, Post und Apotheke .Zur Stadtmitte sind es ca. 1,5km, Seilbahn: 3km. Zeitweise finden abends an Wochenenden Veranstaltungen statt. Dann ist der Parkplatz voll.
1f5980d8-4bc5-4e1f-8725-ce1a56c9c97d;10.442285;51.908136;Goslar - 3 Osterfeld;Ein Parkplatz wird auch als Ausstellungszentrum genutzt, das nur für Wohnmobile und kleine Fahrzeuge verboten ist
a07ae110-b672-465b-b9ba-fc2c490a0833;10.67023;51.760088;Wernigerode - 2 Mühlenweg;Toller Platz mit Bach für eine ruhige Nacht
d4e429e4-4bd5-49ec-8a31-f98e11bdab40;10.300779;51.887852;Langelsheim - K35;Wanderparkplatz, sehr ruhig
78327f11-5c76-49ca-9893-4b1ed2ca6883;10.530358;51.622556;Bad Sachsa - ;Oben auf dem Ravensberg ist ein großer Parkplatz, der im Winter von Skifahrer genutzt wird. Im Sommer kann man dort locker eine Nacht schlafen. Mitten in der Natur. Es ist wunderschön dort.
f32563d2-7888-40cd-b872-97c7d7809924;10.417561;51.910747;Goslar - Astfelder Straße;Für Wohnmobile zugelassener Parkplatz, kein Service, viel Platz, angenehme Umgebung, 1 km vom Zentrum entfernt. Geteilt mit Bussen und Autos. Etwas schräg.
08f3ffba-270a-4726-be65-bca56e10b3ac;10.67568;51.75581;Elend - ;Schöner Ort mitten im Wald - weiter auf dem Weg am Fluss. Eng, aber für kleinere Fahrzeuge zugänglich.
8867b733-107a-462d-ae88-74dddf8e4d82;10.67695;51.73917;Elend - B27;Kleiner, halboffener Parkplatz. Für eine Nacht in jedem Fall ok. Tagsüber ordentlich laut (Verkehr), nachts ruhig. Schöne weite Wiese. Sehr nah zum Brockenaufstieg von Schierke aus.
c06f37c2-8a79-43ab-a763-ed4e73aabc87;10.54239;51.89785;Bad Harzburg - 1 Deilichstraße;Parkplatz an einer Schule, ruhige Lage asphaltierte Straße.
e2ea1c67-8e5d-422a-bb8a-a9f025cf3159;10.331128;51.901795;Langelsheim - 64-84 Am Borbergsbach;Wanderparkplatz und im Sommer Parkplatz des Freibades in der Nähe.  Am Ende der Straße, sehr ruhig
ea37d15f-286f-4e7d-8499-080255207cb1;10.32241;51.62004;Herzberg am Harz - In den Birken;Sehr nah an dem Fluss Oder.  Bundesstraße ca 100 Meter entfernt aber gehr für eine Nacht locker. Radtouren und für Hunde sehr gut.
c3337b34-2b5c-4d73-9e1d-87c5267377b8;10.326907;51.901384;Campingplatz "Am Kraehenberg" Wolfshagen - Campen im Harz;Campingplatz am Krähenberg
ecdc5e57-de31-43b8-8e81-3e4afa297237;10.551989;51.896976;Bad Harzburg - 5 Am Horn;Kleiner öffentlicher Parkplatz vor einem Friedhof, sehr ruhig, ziemlich flach, 2km nach Bad Harzburg
5b0c2a0a-f30b-44f4-bfd8-255ff7fde054;10.257023;51.874249;Langelsheim - L516;Wanderparkplatz an einer nicht überfüllten Straße nördlich der relativ flachen Straße. Keine Aussicht, kein Service. Verboten, nachts zu bleiben
fdb6637f-a747-47b0-9fa6-84cec980d778;10.376849;51.913378;Langelsheim - 2 Dr.-Lienke-Weg;Parkplatz an der Granetalsperre im Harz. Die Parkflächen sind leicht abfallend. Wir konnten ohne Probleme übernachten. Wandern Sie 15 km um den Damm herum.
0e23f9f4-c387-472d-8582-dd9ae9ed0cae;10.683822;51.756873;Harz Mountain Camp am Schierker Stern;Das Harz Mountain Camp  bietet Stellplätze für Wohnmobile oder Caravans und für Bergzelte. Dauercamping bieten wir auf unserem Platz nicht an. Ihr  könnt auch eine gemütliche  skandinavische Übernachtungshütten mieten. Strom extra. Platz und Sani sind Seher sauber. einfache Anmeldung.
34fc6926-e22d-4bf5-ae38-a71e85a9bd11;10.3051;51.897598;Langelsheim - K35;Grosse Wanderparkplatz mit Grill, vergessen Sie nicht, sein trockenes Holz für den Grill mitzubringen.
ca7e6e03-49f3-4700-aff3-af1506f0f1b6;10.333259;51.906393;Langelsheim - 13 Sonderstraße;öffentlicher Parkplatz vor einer Sportanlage, relativ eben am Waldrand. Guter Startpunkt für eine Wanderung um den ehemaligen Steinbruch. Optisches Highlight!
d14a8f7d-2ed4-4376-8a37-c751c99dfb5a;10.6871;51.7439;Elend - 24 Hauptstraße;Gratis Parkplätze
62d22767-86d3-4a84-bc80-9920b7b9ef67;10.58638;51.8876;Campingplatz Die Wölfe vom Wolfstein e.V.;Campingverein „Die Wölfe vom Wolfstein e.V.“ Projekt in Eigenregie. Sehr ruhig, im Grünen. Bad Harzburg in Gehweite. Nur BAR- Zahlung an der Rezeption. Für die Waschmaschinen braucht es Euro-Münzen. Action-Attraktionen, Wandern, Radeln uvm
950861b3-0e9d-41be-88e4-204b64cd328b;10.32924;51.61255;Herzberg am Harz - 5 Am Rötesumpf;Schöner Parkplatz am Ortsrand von Pöhlde. Das Eckerloch ist ein schöner Badeteich und in der Nähe ist ein großer Angelteich. Die Tankstelle wo es Backwaren gibt und einen Automaten mit Käse, Saft,Eiern usw. Aus der Region ist ca 500m entfernt. Für eine Nacht sehr zu empfehlen.
dd487bb1-781b-48cc-857e-5b231e33ac3e;10.688689;51.750994;Elend - L99;Forstweg Abzweigung ins Gruene
119f569b-b976-4be6-92a5-d52bbc88d55d;10.691051;51.74613;Elend - 14 Bahnhofstraße;Direkt am Bahnhof befindet sich eine sehr schöne öffentliche Toilette. Man benötigt 50 Cent Münzen um diese zu benutzen. Der Platz ist der Beste in Elend
8d01a689-26c4-4401-b4e3-facd7ac8e286;10.657312;51.678786;Braunlage - B4;Stellplatz mit Grillhütte und Langlaufloipe. Man steht schön ruhig, ist von der Straße nicht einsehbar.Kein fester Untergrund
328b2b25-cb6c-40c8-8aed-60e67d1c3cda;10.324433;51.909487;Langelsheim - 2 Sonderstraße;Kleiner Parkplatz mit Blick über Wolfshagen. Ein Stück weiter ist noch ein größerer Platz
f0380a1a-5dbe-4261-869e-aff2586ccd1a;10.69362;51.74668;Elend - 5 Am Waldbad;Geschotterte Fläche neben dem Gleis der Harzquerbahn ohne Beschränkung - ab und zu fährt die Schmalspurbahn vorbei (sehr sehenswert)
ae951856-280a-43f0-b087-03eb950abd29;10.695;51.74596;Elend - 1A Am Waldbad;Ein Schild sagt ausdrücklich „Wohnmobile willkommen“! Im Waldbad gibt es zu den Öffnungszeiten Duschen, Toiletten. Der Bahnhof Elend ist nur wenige Minuten entfernt. Nur für absolut autake Wohnmobile geeignet!
a5f7739d-6d36-4003-90d0-fcb0e7f160e8;10.192181;51.834046;Seesen - ;Quellwasser! Guter Ablauf. 1 Zweisitzer vorne.
53048f4d-8b0a-44ea-80a9-2596a55261b2;10.39771;51.923817;Goslar - 3 Gut Riechenberg;Ein schöner Wanderparkplatz der ruhig an einem Kloster liegt. Er ist ebenerdig und hat genug Platz auch für große Wohnmobile.
4a17cb69-6ff8-42e7-8f63-5a1d41950f47;10.233265;51.648307;Hattorf am Harz - 8 Angerstraße;Der Platz liegt am Dorfgemeinschaftshaus. Die Boden Beschaffenheit besteht aus Schotter und Gitter Steinen.
e4a3ed9a-6378-42ad-b8c3-fe14abf36dc5;10.32305;51.91286;Langelsheim - 28 Im Tölletal;Im Ortsteil Wolfshagen im Harz: Kleiner Stellplatz für max. 4 Wohnmobile. Am einen netten kleinen Park gelegen. Allerdings auch nahe an der Ortsdurchfahrtsstrasse gelegen. Nachts aber wenig Verkehr. Lebensmittelladen , Bäckerei und diverse Restaurants fussläufig gut erreichbar. Bezahlen der Gebühr in der Touristinformation auch Fahrradverleih hier möglich.
51d9ad1a-3fc8-4e33-93f2-a4193f7b7cc2;10.38349;51.924887;Langelsheim - 4 Am Nonnenteiche;Industriegebiet. Sackgasse. für eine Übernachtung oder mit dem Fahrrad nach goslar.
4ca9ab10-dad1-46a8-a9e6-3974a384c4e2;10.53921;51.9137;Bad Harzburg - 8 Hackelkamp;Industriegebiet Bad Harzburg Nord, Goedeckekamp Am Abend und nachts ruhig
f52d4bb7-6203-4547-a27e-4f922265043a;10.224271;51.647614;Hattorf am Harz - 29 Mühlenwehrstraße;Parkplatz am Oderparksee. Ruhige Lage direkt am See, einem Grillplatz und einem Spielplatz. Wanderungen und Mountainbike-Touren sind von hier möglich.
43df36ee-bdf0-490b-aa5d-93192deec60a;10.581084;51.618163;Walkenried - 13 Pfarrwiese;Wanderparkplatz am Herrenwiesental. von hier aus startet auch eine Fahrradtour entlang der alten Bahnstrecke bis nach Braunlage
bc87cd36-6550-4cfe-acf0-a6b922526ef9;10.297253;51.911688;Langelsheim - ;Parkstreifen an der Innerstetalsperre. Kein Verbotsschild für Übernachtung. Super Ausgangspunkt zum Wandern um die Talsperre, zum Radfahren oder um im See zu schwimmen. Super mit Hunden oder Kindern. Campingplatz mit Tretbooten und Restaurant fußläufig erreichbar.
bd4ff032-b3b3-43b8-945f-7e81adca73fa;10.549203;51.603769;Bad Sachsa - Ostertal;Kostenloser Stellplatz (nur die Kurtaxe ist beim Tourismusverband zu entrichten) am Waldrand ohne Ver- und Entsorgung. Nachts gelegentlicher Verkehr, ansonsten ruhig. Guter Ausgangspunkt für HWN-Stempel, da fünf Standorte in der Nähe sind. Ein paar Minuten zu Fuß in die Stadt. Heißer Tipp: Day Spa im Hotel Romantic Winkel buchen und sich wohlfühlen.
0989fef3-b80d-4c69-87f0-3130767aa23c;10.70994;51.75728;Elbingerode - ;Ruhige Nacht gehabt. Straße hört man fast gar nicht, kein Mensch weit und breit.
8788ab93-997d-413a-bd5e-be8c1e8444c5;10.282181;51.908292;Camping Innerstetalsperre;Sehr schöner, preiswerter Campingplatz direkt am Innerstestausee. Wohnwagen können direkt am Stausee stehen. Wohnmobile stehen etwas weiter oberhalb. PKWs müssen draußen stehen wegen dem Gewässerschutz. Brötchenservice am Platz. Sanitäranlagen sind ordentlich und sauber. Duschen mit Duschmützen. Dauer der Dusche ist sehr gut. Platzwart, Dauercamper und Gäste sind alle super nett und sehr freundlich. Selten so offene und freundliche Menschen auf einem Campingplatz erlebt. Reservierung ist von Vorteil.
5ce2f051-86f0-464c-84e0-f7addfea7e6a;10.410354;51.933822;Goslar - Carl-Zeiß-Straße;Gasspender im Globus BauMarkt. 24/24 verfügbar.
505dd82d-3c09-403d-bc92-308c534ba3e5;10.517576;51.593249;Bad Sachsa - 1 Am Kirchplatz;In einem kleinem Dorf, direkt an der Kirche, Spielplatz direkt in der Nähe. Für Mobile bis max 7 Metern, Kleiner Dorfladen
8de39913-3a63-49cf-8089-be7c7dcdd1d5;10.693476;51.695271;Sorge - Ebersbachstraße;Parkplatz ohne Installation. Die Harzbahn fährt direkt daran vorbei. Vom Parkplatz kann man zum Grenzmuseum. Ebenso Starten von hier Wanderwege. Im Winter gibt es Loipen. Für eine Nacht ist es Ok.
76f3d828-dcc4-489f-be60-2bbc2b0c5ecf;10.298998;51.916327;Langelsheim - 17 Innerstetal;Nachts  war es sehr ruhig. Platz ist für ca 10 Autos.  Ein paar Minuten Fußweg  und man ist am Wasser, wo auch das Baden erlaubt ist. für eine Nacht  war es ok
b03c38cf-d2bf-4ff5-8b09-fd64b05ce984;10.670442;51.854702;Ilsenburg (Harz;Wohnmobilstellplatz, Super. Am Waldrand. Wanderweg in Reichweite. Zugang und Ausgang (mit Token) durch Schranke. Zum Verlassen muss man einchecken.
57626b52-9cb8-4042-a3e9-ec45e2fac157;10.25577;51.61971;Hattorf am Harz - ;Parkplatz direkt an der B27
c856e409-bcc1-407a-9e76-ed6000a9b1ee;10.184505;51.851528;Seesen - 1 Am Sweenhof;Parkplatz des Sportplatzes neben einer Grundschule. Am Ortsrand schön ruhig gelegen. Am Wochenende eine Nacht schön ruhig gestanden, da keine Schule.
e15477c6-0f63-4f9b-9bce-6e1b59c32baf;10.341778;51.929829;Langelsheim - 8A Kropskamp;Tausch der grauen Propangas möglich
ab4a5e08-9c6f-49c2-ae26-ada4140914cc;10.6679;51.657101;Camping Bärenbache;Campingplatz mit separat angelegtem Stellplatz für Wohnmobile. Sehr ruhiger Ort. Brötchenservice. Beheiztes Waldschwimmbad. Zzgl. Gästebeitrag (Kurtaxe) 
7baafae7-87fa-4c97-98c9-4b2864b954a6;10.649301;51.641916;Campingplatz im Waldwinkel;Campingplatz im Waldwinkel! Camping, Strom, Dienstleistungen und Duschen inklusive. Waschmaschine, Trockner. Pool nebenan, nicht zu teuer.
fb537d46-d111-4026-bf90-583431561568;10.7236;51.743443;Elend - 1 Mandelholz;Ruhiger Hotelparkplatz. Bei Google auch als Caravanparkplatz bezeichnet.  See direkt neben dem Parkplatz.  Für eine Nacht definitiv in Ordnung
13552340-e4e7-4d24-8850-d104a95c4683;10.70343;51.691926;Sorge - 13 Benneckensteiner Straße;Wanderparkplatz in der Nähe des Bahnhofs, nachts ruhig. Kein Service. Leicht abschüssig.
3777b973-899f-40fb-bf93-fdec423e8781;10.211861;51.885603;Seesen - 1 Granestraße;Gekennzeichnete Parkplätze direkt am Kurpark.
513f0768-d039-41b7-bb7e-7b0a5652d6b0;10.309911;51.590978;Rhumequelle;Wanderparkplatz an der Rhumequelle. Eine der größten Quellen in Europa 
ea9e0935-b8df-4808-85ec-a73a2b9a4d17;10.731513;51.770748;Wernigerode - K1354;Großer Parkplatz am Bahnhof der Harzer Schmalspurbahn "Drei Annen Hohne". Parkgebühr am Automaten von 8:00 bis 20:00 Uhr, wird für 24 h ausgedruckt. Keine Verbotsschilder für Camper. Ob Übernachtungen erlaubt sind, ist unklar, wird aber offenbar geduldet. Tagsüber mäßiger Fahrlärm von der nahegelegenen Straße, dem Bahnhof und den an- und abreisenden Touristen. Bei schönem Wetter hier spätestens um 10:00 Uhr. Für eine Nacht ok. Guter Ausgangspunkt für Wanderungen u. A. Zum Leistenfelsen und für Fahrten mit der Brockenbahn.
09bf1035-cd56-4af7-92d9-39dfd24544ae;10.7311;51.744701;Elend - B27;Kleiner, gut frequentierter Parkplatz ohne direkten Blick auf die Staumauer. Ein Großteil des Parkplatzes liegt am Hang. Kein Wassersport möglich Schwimmen verboten. Viele Wanderwege in der Nähe. Königshütte / Harzdamm in Mandelholz Öffentliche Toiletten sind von April bis Oktober zwischen 08:00 und 20:00 Uhr geöffnet. Kein Mülleimer vor Ort. Ein Haus ist in Sicht.
c8aa4176-6400-4bfa-b04e-49def0cf3d65;10.568987;51.591486;Bad Sachsa - 1 Sachsensteinstraße;ausgewiesene Stellfläche auf dem Edeka Parkplatz, ca. 1000 Meter in die Stadt, 100 Meter zu Edeka / Bäcker.
73c28fdc-fb94-4a2a-84d8-74852857bb80;10.62726;51.61409;Walkenried - 1 Schäferwiese;Schöner kleiner Stellplatz, direkt an einem kleinen Fluss, für kleine und große Wanderungen perfekt. Keine Schilder oder ein Verbot! Bitte Müll und sonstige Hinterlassenschaften mitnehmen.
2969587d-5579-459f-8def-1e4cdca95a71;10.648089;51.894532;Bad Harzburg - 37 Blankenburger Straße;Wanderparkplatz an Ende einer Sackgasse/Wohngebiet direkt am Waldrand. Nicht ganz gerade... Für Fahrzeuge bis 6,00m-6,40m ok. Nur ein paar Meter neben der ehemaligen innerdeutschen Grenze.
12d73a23-cfa6-42a2-9cc8-74663df210a2;10.7211;51.696701;Tanne - 36 Bodetalstraße;Ruhiger, ebener Parkplatz im Ort, an der Bode. Schöner Ausgangspunkt für Wanderungen.
a1b32215-d604-466d-9a3c-9e73fa0ab69e;10.742105;51.771678;Elbingerode (Harz;Kostenloser Parkplatz, ohne Beschilderung, am Waldrand, Holzverladeplatz, durch eine Baumreihe von der Straße getrennt, 10 m breit, 100 m lang. Alternative zum nahen Parkplatz am Bahnhof der Harzer Schmalspur Bahn "Drei Annen Hohne". Durchaus in Ordnung für eine Nacht. Tagsüber je nach Saison und Wetter mäßiger Autoverkehr, nachts ruhig.
48ba9a4b-8c84-48ed-a3b4-5a08480b2d72;10.7326;51.809799;Wernigerode - Thumkuhlenstraße;Kleiner Schotter Parkplatz und Ausgangspunkt für Wanderungen. Liegt an einem kleinem Bach nähe einer Bundesstraße welche aber nicht so stark befahren ist. Mülleimer vorhanden.
3bebb8d4-4f6c-42c2-97b0-813f98032bb3;10.73907;51.79207;Wernigerode - L100;Waldparkplatz an Landstraße abgeschirmt durch ein paar Tannen.
ffa7e3c0-5539-40b4-827f-176d7db3f1f1;10.71419;51.673305;Benneckenstein (Harz;Geschotterter Platz am Bahnhof Benneckenstein. Die Harzer Schmalspurbahn fährt in Sichtweite, Supermarkt fußläufig erreichbar, kein Service.
f3fbee17-114f-40ea-96b2-3d0c86101985;10.708866;51.669336;Benneckenstein (Harz;Leicht abschüssiger, öffentlicher Parkplatz ohne Versorgung/Müllentsorgung. Kostenlos und ruhig, wenig frequentiert. Gut für einen Tag zum Wandern oder auch für eine ruhige Übernachtung.
c2a6b0fe-4394-4826-bcea-784e0c8f5668;10.716959;51.673622;Benneckenstein (Harz;Parkplatz am Bahnhof in Benneckenstein gepflastert und ungestört.  Enkaufsmarkt Norma 150 m entfernt
407d9cdf-c9e4-46d7-8cd9-14fca8d95f8f;10.720643;51.680397;Benneckenstein (Harz;Ruhiger Wanderoarkplatz. Gut für eine Nacht.
80a00ac0-6236-4191-a32a-3a5730730960;10.734793;51.69446;Tanne - ;Heringsthal... ein Parkplatz ohne alles. 100 Meter von der Straße mit Bäumen umsäumt.
69b91c9c-320c-41bb-bf93-0e4f9f6b1ea2;10.777429;51.678007;Hasselfelde - 242;Netter ruhiger Platz zum wandern und für eine Nacht
80455bba-2346-432e-a5fb-7fe0a6d15737;10.74504;51.63514;Ellrich - ;Geschotterter Wanderparkplatz mit Schutzhütte. Wunderbare Aussicht. Direkt an einer selten befahrenen Landstraße. Nachts sehr ruhig. Ausgangspunkt für schöne Wanderungen. (Z.B. 5 Stempelstellen der HWN in Tageswanderung erreichbar.
96407bcb-3a1a-4c7e-8563-1902c70d2ae6;10.747013;51.626187;Ellrich - B4;Schöner kleiner Parkplatz für 2 Mobile etwas versteckt neben der Straße. Ausgangspunkt für schöne Wanderungen zB zur alten Steinmühle mit tollen Felsformationen
555f09ba-d708-4314-991e-8a4edbc17023;10.765094;51.738774;Elbingerode (Harz;Schotterplatz zwischen Fluss und Straße. Straßenlärm sicher auch nachts, aber keine Verbotsschilder. Keine Müllentsorgung, also bitte nehmt euren Müll mit!
111b7b30-71e9-4942-9e33-309f8c492c50;10.789436;51.633297;Harztor - Dorfstraße;Öffentlicher Parkplatz ohne jeglichen Service, dafür sehr ruhig in der Nacht. Nehmt Euren Müll bitte wieder mit, dann sollte es auch weiterhin keine Probleme geben. Bahnstation der HSB ca. 1,5 km entfernt, tolle Ausgangsstation für Wanderungen und Radtouren.
0f7f125a-0071-4679-b0fb-a65582c93a6c;10.791634;51.634947;Harztor - 16 Sophienhof;Stellplatz am Braugasthof Brauner Hirsch Grosse, Wiese leicht abschüssig, eine Stromsäule mit 6 Anschlüssen, WC und Dusche (in der Sauna) für 5 Euro Aufpreis im Haupthaus. Frühstück auf Wunsch, Essen und Bier der Hausbrauerei sehr gut und reichlich. Brötchen können morgens in der Gaststätte erworben werden.
5e59d839-b89d-47f6-b46c-9a6dc10a4af6;10.665757;51.603422;Parkplatz Stadtwald Ellrich;Kleiner, ruhiger Wanderparkplatz, ideal für eine ruhige Nacht und eine Wanderung am nächsten Tag. Keinerlei Infrastruktur!
115a7e02-8e09-42e8-b7a8-32c758f0028b;10.832648;51.661841;Hasselfelde - 81;Parkplatz an der B81. Kostenlos mit Sitzbänken und Tischen. Gut zum übernachten geeignet. Kein Service
ef4b6627-c6aa-4b30-861b-1b8f243f8b69;10.837195;51.679026;Hasselfelde - 3 Am Waldseebad;Langgezogener, kostenloser Parkplatz gegenüber vom Waldseebad Hasselfelde. Von hier aus könnte man wandern, eine gute Pause einlegen, gegenüber ist ein Teich. P liegt an der B81 ( ob das Waldseebad noch geöffnet wird, war nicht ersichtlich )
b44fbbc4-3da8-40fe-a07c-cece130201fb;10.795987;51.612336;Harztor - B81;Großer Parkplatz, man steht hier alleine, LKWs wenden oder machen hier Pause, direkt neben der Bundesstraße, Flüsse und Wanderwege zu allen Seiten
71f3828a-607f-4d8f-8955-ea9d5fe5d7eb;10.843684;51.697893;Hasselfelde - Unnamed Road;Wanderparkplatz Murmelbachtal an der Rappbode mit vielen Wanderrouten rings um die Rappbode. haben hier eine ruhige Nacht ohne Probleme verbracht.
7dd4ee86-b1b3-450d-9d06-0e136d58c273;10.81994;51.62453;Hasselfelde - ;Einfahrt zu einem Steinbruch. Wir standen von Freitag zu Samstag. Da war es sehr ruhig. Ob man in der Woche den Steinbruch hört oder LKWs die Plätze nutzen, können wir daher nicht beurteilen. Sehr schöner Platz für eine Nacht.
e5c6b968-cde5-4101-aea2-590d3da8e751;10.79137;51.603151;Harztor - 6 Netzkater;Parkplatz neben dem Forstamt,Zufahrt von B81 Ausschilterung Besucherbergwerk Rabensteiner Stollen. Hier ist auch der Haltepunkt der Harzer Schmalspurbahn mit Gaststätte.
279f3f4e-4704-4984-a0b4-72b158ca97f9;10.73425;51.58054;Wohnmobilstellplatz Appenrode;Gebührenfreier Stellplatz auf überwiegend ebenen Untergrund mit Schotterrasen. In der Nähe ausgewiesene Wander- und Fahhradwege, Naturdenkmale Am Platz: WLAN, Strom, Hunde erlaubt, ganzjährig nutzbar. Für die Übernachtung und Strom etc .kann eine Spende durch den Schlitz, für die Weiterentwicklung und Erhalt das Platzes. Es ist derzeit keine V/E möglich!Zufahrt ist flach um das alte Gebäude herum. Bitte die Stellrichtung beachten.
f95e9b36-206b-4896-b726-20f7f5bff92b;10.624518;51.589255;Camping Knaus;Campingplatz Knaus, Wohnmobilstellplatz, sehr ruhig. Am Eingang vom Campingplatz gibt es ein Restaurant, leckeres Essen, super Bedienung, hohe Preise. Der Campingplatz wird durch eine Frau betrieben, sie und das Team sind super freundlich und hilfsbereit.  Es wird viel geboten für Kinder, Hunde sind willkommen und Wanderwege schließen sich direkt an den Park an.
e295241b-72b4-4692-a639-f3bb22255f48;10.830021;51.746481;Elbingerode (Harz;Ist nah bei einer Kläranlage hinter einem Hügel (der Wind darf nicht aus Westen kommen). Dafür entschädigt in den Abendstunden der Bodennebel,der fast täglichen mystisch zu sehen ist.
1154690f-fbe0-47ff-ac7a-e7a182a5f7c9;10.8658;51.701199;Hasselfelde - B81;Wiesenstellplatz ohne Parzellen. Ebene, etwas abfallende Wiese. Anmeldung am Eingang zur Westernstadt. kostet 10 Euro pro Nacht.  Vor dem Haupteingang gibt es eine öffentliche Toilette.  Rechts neben dem Gebäude befindet sich ein kleiner Gulli zur Kassetten Entsorgung.  Im WC kann man auch Frischwasser Kanister befüllen.  Auch für grosse Mobile geeignet. nachts sehr ruhig. Ein Besuch in der Westernstadt lohnt sich auf jeden Fall.  Abends bei freiem Eintritt Zugang zu den Restaurants mit Liveband.
8d13443c-df45-48f6-b15e-86e71b2343aa;10.60764;51.59153;Walkenried - 7 Nordhäuser Straße;Die bisher am Ort bekannten Plätze sind nicht so optimal. So habe ich diesen Platz gefunden in einem Wohngebiet. Ebene Fläche, ausreichend für 5,99m, kein Verbotsschild.
622acced-047b-4b7b-a16c-e2ac28fb9651;10.866531;51.705814;Hasselfelde - B81;Sehr schöner Platz in einem Feld. Tolle Aussicht und niemand außer vielleicht einem LKW-Fahrer. Soweit mir rechtlich bekannt ist, ist nichts verboten. . Hoffe dir gefällt der Ort :)
89a65fa6-0530-4b5c-8b69-7fd32c29e2f0;10.786046;51.586652;Harztor - 14 Johann-Kleinspehn-Schanze;Wanderparkplatz mit Waldboden/teilweise Kopfsteinpflaster am Ortseingang Ilfeld. Zwar direkt an der Straße, trotzdem schön grün und guter Ausgangspunkt für diverse Wanderwege, u.a. zum Freibad (in 1,2 km). Achtung, die Harzer Schmalspurbahn kreuzt mehrmals täglich den Bahnübergang direkt am Parkplatz, das ist etwas laut!
3ed0e0e4-4c5f-47d7-a368-b1a6c18e41aa;10.623356;51.583205;Walkenried - 3 Schützenstraße;Privatgelände der Schützengesellschaft!Platz wird und ist Videoüberwacht!
cbe61927-b374-4bba-83f2-a6b81911e23d;10.620733;51.582008;Walkenried - 5 Klosterweg;Parkplatz am Kloster Walkenried, ohne Service aber sehr schön ruhig. Mehrere Gaststätten befinden sich in der Nähe. Bis 22h darf mit Wohnmobiles geparkt werden.
3a1852f1-78cc-4d45-8006-7fb9a9e59139;10.878048;51.680166;Domäne Stiege;Schöner netter Campingplatz,mit freier Platzwahl, eigener Gastronomie, Dusche und WC sauber. Duschen mit Münze welche es zu kaufen gibt. Neue entspannte Besitzer. Biker willkommen!
7bb65d3d-eb92-4e9c-8b9e-2359bce298da;10.79558;51.77613;Camping am Brocken;Camping am Brocken Schöner Campingplatz in der Nähe von Elbingerode Duschen kostet 50Cent Brötchenservice
764b5781-86f0-437c-95e4-a1b3fe679aeb;10.607763;51.582536;Walkenried - L603;Schoner platz am See. Mit meinem minicamper tolle Nacht verbracht.
08d6b62b-5abb-4d07-b325-62717c01710c;10.791433;51.77926;Elbingerode (Harz;Schöner Parkplatz im Wald und sehr nettes Restaurant um die Ecke..
cb81ecbc-1131-4375-a82e-264bc45c40d9;10.882553;51.660552;Stiege - 45 Lange Straße;Am Bahnhof in Stiege, es ist wohl geduldet hier zu stehen. Sehr ruhig, am Tag fährt die Selketalbahn alle Stunde vorbei.
6c651706-a8c1-4708-9b62-987737f537c8;10.886045;51.665787;Stiege - 1 Teichstraße;Parkplatz ohne Beschilderung oder Beschränkungen. Wir haben im Schloss gefragt und für diese Stelle gibt es keinerlei Probleme - Gäste im Städtchen Stiege sehr herzlich willkommen!
866989f4-bf10-44ae-adfa-933a4aef35b4;10.88734;51.66034;Stiege - Unnamed Road;Blick über den Ort Stiege ( Kirche und Schloss) und beide Seen. Nach kurzem Spaziergang Richtung Bahnhof erreicht man die Stabkirche Stiege.
9f241dec-b020-4628-a453-33eede4168f8;10.850745;51.754624;Wohnmobil / Wohnwagenstellplatz;Hentes Stellplatz  Kleiner, feiner WoMo-Platz im Aufbau, links oben auf dem Grundstück. Waldrandlage. Betonplatten. Gut für kleine Womos, ab ca 6 Meter eingeschränkt. Große Wohnmobile oder Anhänger im unteren Bereich möglich. Waldrand am Wanderweg. Unkomplizierter Eigentümer. Telefonische Absprache notwendig
e2eb4b75-f5e3-49f9-99a7-13a6fd7c8ac5;10.861018;51.747987;Elbingerode (Harz;Sehr schöner Platz für 1 Nacht. Sehr ruhig.
762df12d-2aeb-4672-99a5-080a382ec512;10.897875;51.673447;Stiege - L95;Großer, unbefestigter Parkplatz am einer Straße, die nachts kaum befahren ist. Schöner Ausgangspunkt für Wanderungen.
8606ece8-3f9d-4284-9254-34f4ada4eecc;10.84936;51.598902;Harztor - 1 Hufhaus;Ausflugs- und Ferienhotel Hufhaus Harzhöhe: Ostalgie pur ist Geschmackssache, aber gutes Essen von freundlichen und engagierten Betreibern ist wirklich sehr günstig und empfehlenswert. 4 km Waldweg. Aber das ist es wert! Von dort aus schöne Wanderungen möglich. Erholung pur mitten im Wald. Wasser gibt es am Wasserhahn vor dem Eingang. Entsorgung nicht möglich, ggf. nach vorheriger Absprache möglich. 
eea156af-e3c5-4fd5-8c89-dd2b665995c6;10.868713;51.747124;Elbingerode (Harz;Entspannter Ort in der Nähe des Damms. Die Umgebung lädt zu kurzen Spaziergängen ein.
d69a4619-bf5c-467c-ad94-1e854c2dc40e;10.89076;51.726151;Hasselfelde - ;Toller Platz an dem sich Fuchs und Hase gute Nacht sagen. Sind im Dunkel angekommen und haben die Ruhe und den Mondschein genossen. Morgens nach dem  Wachwerden und Frühstück konnte man die schöne Natur genießen und unweit von dort fussläufig den tollen Ausblick zum Brocken. Ich habe dann noch die Hinterlassenschaften ( Papier und anderen Müll) den Touristen dort hinterlassen haben eingesammelt. Auch wenn es nicht viel war aber trotzdem mache ich das gerne an jenen naturnahen Plätzen um der Natur somit danke zu sagen für diese tolle Nacht! ?
8d6a812c-a655-4d63-a4c2-383555314b7a;10.895798;51.721783;Hasselfelde - 1 Stemberghaus;Parkplatz des Köhler-Museums (traditionelle Holzkohleproduktion). Tagsüber Restaurant mit Toiletten für 50 Cent oder als Gast. Ruhig mit genügend Platz. Ausgangspunkt für einige Wanderrouten.
83297672-c96c-41d9-830c-bac8c5510fda;10.57817;51.57503;Bad Sachsa - 10 Am Kranichteich;Kleiner Parkplatz am Teich.
8e6ea1cf-72fc-48d0-a3ec-2e941d0d4da3;10.87527;51.75195;Elbingerode (Harz;Schöner großer Parkplatz der kaum genutzt wird. Direkt am Fluss von einem ruhigen Dorf. Geeigneter Ausgangspunkt für Wanderungen.
97347763-bd15-40f5-afc3-7afca21e7c92;10.817261;51.788203;Elbingerode (Harz;Parkplatz am Schaubergwerk Erzgrube Büchenberg.  Betonparkplatz am Schaubergwerk, keine Versorgungseinrichtungen. Wir haben hier lediglich gefrühstückt, jedoch standen neben uns zwei Bullis die scheinbar hier übernachtet haben. Ein Besuch im Schaubergwerk ist sehr empfehlenswert und interessant. Am Eingang gibt es einen Imbiss und das Bergwerk selbst darf mit Hunden betreten werden und ist wohl auch barrierefrei. Die Mitarbeiter sind sehr nett und beantworten gerne alle Fragen.
fa742fc8-4364-4d86-89e7-fc1cdc3ec649;10.887763;51.742856;Elbingerode - ;Parkplatz der Harzadrenalin-Hängebrücke ZipLine und Aussichtsturm. Stellplatz ausgeschildert, Stellplätze nicht markiert. Toiletten sind zugänglich.
62f6b8b0-763e-475f-a8ab-ac4d73175152;10.737;51.814098;Wernigerode - L100;Kleiner Schotterparkplatz kurz vor Wernigerode. Gut für eine Übernachtung. Direkt an einer Landstrasse. Ausgangspunkt für Wanderungen
cb6915ad-ee1e-4d80-964b-a92b927431a2;10.828759;51.569703;Neustadt/Harz - ;Parkplatz am Freibad. Leider ist das Übernachten mit Wohnmobil verboten. Ausgangspunkt zur Wanderung zur Burg Hohnstein. 4 G per Vodafone. Enge Zufahrt über kleine Brücke mit max. 7.5 t.
c73e38bb-cd6a-47af-a18a-eabf9c17429c;10.8738;51.763802;Elbingerode - B27;Kostenloser Parkplatz mit Zugang zum blauen See. In unmittelbarer Nähe ist die Bundesstraße 27 und eine Bahnlinie. Der kurze Weg zum blauen See ist schnell gelaufen und man hat einen schönen Ausblick auf den See. Baden ist dort möglich.
2a9c06a7-3453-4925-84df-48ede93fe097;10.828798;51.568499;Campingplatz am Waldbad - Müller & Bendert GbR;Campingplatz am Waldbad - Müller & Bendert!In Neustadt/Harz, sehr ruhig gelegen, kleiner Imbiss,Shop,Freibad direkt nebenan.
8e5c97b7-d205-42d5-8a6c-7c340785e8f9;10.907491;51.734331;Hotel und Camping - Stell- und Zeltplatz an der Talsperre;Letzter Parkplatz vor Talsperre. Zwischen 18 und 10 Uhr ein ruhiger, sauberer Platz, danach viel Betrieb. Sanitäre Anlage frisch saniert und sauber. Betreiber nett, Handynummer an Rezeption am Haupteingang des Hotels. Service nur, wenn man hier auch übernachtet. Brötchen und Getränkeservice.
02f7b62e-a89f-4aa6-b193-72f97c47da8d;10.729618;51.818571;Wernigerode - Bielsteinchaussee;Wenn alle Wanderer weg sind ist man hier ganz alleine. Morgens zum Frühstück begrüßt einen sie Brockenbahn. im Kalten Bach kann man sich herrlich waschen. Absolut ruhig und idyllisch.
376d6531-7298-4a0c-8084-1597806b400f;10.77143;51.54605;Harztor - 4C Kirchberg;Parkplatz des örtlichen Freibades. Schotterfläche, direkt neben dem Gelände des Bads. Gegenüber Wohnhäuser. Keine Verbotsschilder. Auch für größere Fahrzeuge geeignet. Zufahrtsstraße könnte allerdings etwas eng werden. Für uns (7,41m) ok. Übernachten zumindest außerhalb der Saison möglich. Wir haben eine Nacht im Oktober verbracht, die sehr ruhig war.
2f296e36-6c6c-4d40-a223-cb6228422c3c;10.732466;51.820255;Wernigerode - Bielsteinchaussee;Platz für ein Camper bis 6m direkt vor gesperrter Brücke. voll schattig, direkter Bachzugang zum waschen und abkühlen. Nacht kein Verkehr. Ab morgens geht es  erst los, Wanderer, jogger...
233028f0-ac61-49e7-b9c3-90082b4fb348;10.80254;51.807433;Wernigerode - B244;Wanderparkplatz Nähe Wernigerode. Mit Picknickbank und kleinem Bach am Platz. Wanderwege und Fahrradwege gehen von hier los. Straße ist weit genug weg, daher sehr ruhig. Kein Daten - oder Netzempfang. 
c044fc00-bf54-422b-8033-7638d7a9a1f6;10.75366;51.535435;Parkplatz Gedenkstätte;Parkplatz am der Gedenkstätte Dora Mittelbau, nicht wirklich für Große Wohnmobile geeignet aber wenn wenig Besucher da sind ist Platz genug. Ansonsten muss man weiter vorne Parken.
3d121d06-d916-46fb-a6c4-03234150ef8f;10.926648;51.730121;Thale - 1 Ludwigshütte;In Altenbrack links über die Brücke dann nach rechts 500 Meter bis zur Forellen Zucht.  Am Tag gut besucht aber Abends ist es ruhig. Die Bode direkt davor ... super
32f9d0cf-0938-46b2-8745-b4e8ba0ef337;10.673484;51.531163;Werther - Günzeröder Hagen;Der Schotterweg gegenüber ca 100m, vor den ersten Bäumen ist ideal, waren zum Übernachten. Tolle Aussicht, absolut ruhig ( Ostersonntag )
d16f8ee0-f3f7-489d-b7a6-247538606e47;10.76268;51.82682;Wernigerode - 114A Friedrichstraße;Einfaches Parken an der Hochschule Harz. Nur für kleine Fahrzeuge geeignet, ruhiges Parken. Die Kaffee- und Snackautomaten der Hochschule können genutzt werden.
d10386f2-a208-4309-b383-c1c528056253;10.8142;51.814602;Camping Alte Waldmühle;Camping "Alte Waldmühle". Schöner Campingplatz auf Gras, im Tal mit Bachlauf. Möglichkeit mit dem Bus in die Stadt zu fahren. Schöne Spaziergänge in der Altstadt und im Harz.
9cdbab70-fa05-43ca-a15f-ff4f94e2f96c;10.9421;51.7258;Stellplatzplatz Bodewiese;Stellplatz liegt zentrumsnah | sehr ruhig | 299 m ü. NN | Standflächen eben | mit Verbundsteinen befestigt | am Rand eines PKW-Parkplazes, Stellplätze parzelliert in Wohnmobilgröße | Schatten durch Bäume am Rand | für Reisemobile reserviert |  Beleuchtung | keinerlei Infrastruktur für Wohnmobile | Fernsehempfang per SAT | 4 Picknickplätze | 5 Minuten Fussweg bis zum Freibad | 50 Cent-Münzen werden für die Toilette benötigt  Parkgebühren und Kurabgabe zahlbar mit Münzen am Automaten.
207326b6-9b7c-4148-ae7e-35717c29e388;10.801637;51.824751;Wernigerode - 27 B244;Ruhiger Parkplatz. Sehr eben, kaum schräg. 15 Minuten Fußweg in die Stadt oder auf das Schloss. Auch eine Wander Tafel für Touren im Wald ist nebenan aufgestellt.
a91caf28-240b-4f40-a680-4e58b20b3ee3;10.795952;51.827109;Wernigerode - 1 Mühlental;Parkplatz für alle Fahrzeuge in der Nähe der Fußgängerzone.  An Werktagen von 8 bis 18 Uhr mit Parkscheibe 1 Stunde kostenfrei parken. Danach von 18 bis 8 Uhr und an Sonntagen und Feiertagen ganztags kostenfreies parken.
50685453-34c6-4f17-add3-eb2c1f474ba1;10.907335;51.773862;Hüttenrode - Alte Blankenburger Str.;Sehr ruhiger Platz, umgeben von Wald, hinter dem Friedhof. Platz für 5-6 Wohnmobile.
5439d69a-8b5b-4bc6-b9a0-2716e33dc156;10.78395;51.83285;Wernigerode - 1 Klintgasse;Öffentliche Toilette
30d1f2d6-923e-4100-a08f-6d50923e1585;10.719127;51.841005;Ilsenburg (Harz;Offizieller gebührenpflichtiger Stellplatz mitten im Wald, ohne jeglichen Service. Platzwart sehr nett.
ea0dac08-70d6-4188-91cb-c7865498824d;10.95172;51.723022;Thale - L94;Parkplatz direkt neben der Straße und oberhalb der Bode. Wenig Verkehr, aber sehr idyllisch mit dem Rauschen des Baches. Nur zum Übernachten, dafür aber schön.
530cd5f0-a5d9-4b7b-85b1-b640e6f4fe4a;10.723718;51.842258;Ilsenburg (Harz;Parkplatz des Tennisplatzes. Keine Ver- und Entsorgung möglich, kein Strom. Dafür extrem ruhig.
0425ebe9-4d1c-4322-82b8-2b550ac99498;10.94576;51.738;Thale - L94;Parkplatz am Hasenteich. Kleiner Parkplatz für Max. 2 Wohnmobile bis ca. 6m Länge. Der Platz liegt direkt an einer mäßig befahrenen Straße. Schöner Blick auf den Teich, insbesondere solange die Büsche noch kein Laub tragen. Der Teich ist zum Baden nicht geeignet.
3a3bca86-0693-4e37-94ab-72963d2fa646;10.723365;51.842619;Ilsenburg (Harz;Sehr ruhige Nacht gehabt. Für Wohnmobile sind lange Parkbuchten an der Straße. Optimal für 1-2 Nächte
cc879c54-2dd2-4bcc-9bda-ff3416ef734e;10.77872;51.5233;Nordhausen - 14 Harzstraße;Super Platz! Habe am Fluss mit meinem Camper gestanden! Einfach toll!
8b73633a-de21-467d-98b8-5882c5daa604;10.78746;51.83592;Wernigerode - 20 Johannisstraße;Kleiner Parkplatz mit Schlossblick. Sehr ruhig und nahe der Altstadt. Exzellent!
a728c974-caed-44d3-b15c-c2d50e002d09;10.91155;51.78134;Blankenburg - ;Sehr schöner idyllischer Platz, zwischen Straße und Bahngleisen aber trotzdem sehr ruhig.
87fd0eb5-d576-4ccb-a85e-29487bd436d5;10.801053;51.833562;Wernigerode - 40 Am Lustgarten;Ruhig gelegener und flacher Parkplatz. Gut 1-2 Nächte. Am Rande der Stadt. Nur Morgens ein paar Autos.
03d3483d-8d50-486e-a97c-585909c7eab9;10.801773;51.833777;Wernigerode - 40 Am Lustgarten;Parkplatz am Fuße des Wernigeroder Schlosses , guter Telefon und Daten Empfang , Mülleimer vor Ort , Ausgangspunkt für Wanderungen , Ruhe pur direkt am Klostergarten ( Lustgarten )
68578595-f4d7-4d59-96ae-699d685929d0;10.7814;51.838699;Wohnmobilstellplatz Am Katzenteich;Zentrum Wernigerode, 800m zur Innenstadt, Wasser, Strom zuzügl. Kurtaxe pro Person/Nacht.
a44063fc-42e6-4b34-9b95-b692ef67b111;10.948879;51.617389;Südharz - 110e Am Schützenplatz;Parkplatz für Wohnmobile. Kosten 9,- Euro. Grosser Platz auf einem Schotter Gelände. Einigermaßen eben.  Neben eingerollt Durchgangsstrasse. Stromsäulen aktuell 14.08.2020 gesperrt
646cbb4f-b51b-404f-bb07-2a12ee3c3ed3;10.807876;51.83295;Wernigerode - 3 Lilienweg;Grosser Parkplatz ..sehr ruhig..kein Service
d4a9db0e-b688-4963-a4c7-48cc958b6265;10.78692;51.8396;Wernigerode - 7B Feldstraße;Wernigerode, Feldstr.12 : Auf dem Parkplatz einer Schmiede kann man gegen Gebühr stehen. Blick auf den Dampflokschuppen und das Schloss Wernigerode. Der freundliche Besitzer gibt Ihnen gerne Auskunft darüber, was Sie wie und wo finden können. Da es sich um einen reinen Parkplatz handelt, gibt es logischerweise keine Duschen, Strom oder sonstiges.
e9ae6815-1049-446c-b010-0e750962e349;10.955585;51.737689;Thale - Forsthaus Todtenrode;Parkplatz am Gasthaus „Zum alten Forsthaus Todtenrode“
8b4b1f78-390f-40d5-9efe-bd60d539b0b5;10.78459;51.84049;Wernigerode - 13 Im Stadtfelde;Netter ruhiger Parkplatz an einer Kleingartenanlage
d9f5abd3-1d17-44c2-9f3f-ca3c62f53e02;10.751809;51.845738;Wernigerode - 1 Auerhahnring;Ruhige Sackgasse hinter der Brauerei. Kein Wendehammer. Eben und asphaltiert.
43be6053-bf41-4778-be0b-76c9b992fb82;10.76404;51.8443;Wernigerode - 6 Am Bruchanger;Abgelegene Straße, ideal zur Wiederherstellung der Fahrtüchtigkeit, ein anderes WoMo kannte die Stelle auch.
72a5d0ad-e849-4fc5-be8b-2090d2dc0966;10.7953;51.838699;Parking Anger / Schloss Wernigerode;Schöne Parkplätze, um diese schöne Stadt zu besuchen. Allerdings sehr kurze Plätze, Wohnmobile mit 6 m Länge passen gerade so.
ca5097a7-479c-47ad-ac28-00b0e3698897;10.882794;51.551482;Herrmannsacker - 2 Sägemühle;Sehr ruhig gelegener Stellplatz ohne Versorgung Mit Blick ins Tal
45827310-e1de-41ff-bd61-a71b9e484b6d;10.970649;51.717667;Thale - 2 Halde;Gebührenfrei und wunderschön gelegen, direkt an der Bode. Nicht für Fahrzeuge mit Überlänge geeignet. 
7f5dc9c8-78d3-491a-b76b-c763b3d1aa26;10.736692;51.852362;Wohnmobilpark Harzblick;Wohnmobilstellplatz in Darlingerode, private Betreiberin, ruhige Lage, umzäuntes Gelände. Bäcker, Metzger, Gastronomie in der Nähe.
9073071e-f250-4492-86cd-96b36a3d9260;10.9587;51.61261;Südharz - ;Großer Holzarbeitsplatz mit Aussicht.
12a25bec-8d54-42ba-b50b-2ddea6da46ba;10.73635;51.85264;Wernigerode - 11 Hinter den Gärten;Ein sehr guter Service sowohl für die Selbstbedienung als auch für die Servicewäsche, beide kosten den gleichen Preis. Die Kosten richten sich nach dem KG Ihrer Ladung, das Trocknen ist im Preis inbegriffen, aber um zu sparen, nehmen Sie Ihr eigenes Waschpulver mit.
052fe13d-54b4-4d00-82b1-5b338a10daf5;10.974933;51.716241;Thale - 24 Ortsstraße;Großer Parkplatz an der Bode und am Kreisverkehr. Mehrere Restaurants in der Nähe. Sehr gemütlich.
3106ee67-6341-4398-907f-6cc1d7d8724a;10.981385;51.679424;Thale - L95;Parkplatz an einem kleinen Teich. von hier aus gute Anbindung an einige Wanderwege. Nachts sehr ruhig.
d87575ae-aab7-4a93-88b9-df1170a79830;10.79082;51.51074;Nordhausen - 10 Gehege;Mitten im Grünen auf dem Gehegeplatz liegt ein sehr schöner ruhiger Wohnmobilstellplatz. Gastronomie vor Ort ist vorhanden. Fussläufig ist man in 10 Minuten in der historischen Altstadt oder kann direkt zu Radtouren um Nordhausen oder den Harz durchstarten.
c8051e9a-d775-4556-b38e-b552842b4c0f;10.784207;51.506335;Nordhausen - 39 Grimmelallee;Parkplatz am Badehaus. SP für Wohnmobile Ver-/ Entsorgung am Platz. Stromanschlüsse am Gebäude. Anmeldung und Kasse im Badehaus.
98a05d64-e58b-4f53-87f1-fccedd46146d;10.78513;51.50408;Nordhausen - 42 Grimmelallee;Parkplatz in der Nähe des angrenzenden Schwimmbades. Nur gegen die Nutzung des Schwimmbades. Der Pool verfügt über drei Schwimmbereiche. Eines ist ein wunderschönes Jugendstilgebäude aus dem Jahr 1907. Bei der Nutzung des Schwimmbades ist das Parken im Preis inbegriffen (5 € pro Nacht). Der Standort war auch für große Wohnmobile geeignet.
0a9414c7-b884-419f-9b56-2d7c174f4e1a;10.913309;51.807969;Blankenburg (Harz;Großer ruhiger Parkplatz am Kloster Michelstein, beleuchtet, mit Müllentsorgung in schöner landschaftlicher Umgebung. An einem Bachlauf gelegen, mit Blick auf Gaststätte Großvater und Burgruine Regenstein. Möglichkeit beim Klosterfischer geräucherten Fisch zu kaufen. Haben eine ruhige Nacht hier verbracht.
cada468d-a285-4915-90f8-51aa15313e90;10.946088;51.576256;Südharz - Rittergasse;Kostenfreier Parkplatz in der Nähe des wunderschönen Ortskerns. Die Plätze liegen am Bach Lude und sind gepflastert. Sehr ruhig und gut gelegen.
38456293-2296-46d0-bdfc-634fec986e25;10.79143;51.50073;Nordhausen - 7 Königshof;Schotter Parkplatz. Kostenlos nahe der Altstadt.
828b6536-c572-40e8-ac2e-1f59ccc8687e;10.902592;51.820514;Heimburg - K1347;Parkplatz an Landstraße Wenig Verkehr (standen von Samstag auf Sonntag dort), abends ein paar Jugendliche aber ab 22 Uhr war es sehr ruhig. Direkt daneben wunderbare Aussicht über Heimburg und Blankenburg bis hin zur Ruine Regenstein. Traumhaft um den Sonnenuntergang zu beobachten.
9f7fb734-10f6-476a-96b3-e0845f88d614;10.80346;51.50282;Nordhausen - 40 August-Bebel-Platz;Der Parkplatz liegt im Zentrum von Nordhausen und ist auch für große Wohnmobile geeignet. Die Lage ist sehr praktisch. Straßenbahn und Bus sind in unmittelbarer Nähe. Einkaufszentrum, Banken, Kaufhaus auch.
9c973ec1-a040-4d8b-a0f5-ee4b4531fe8f;10.80705;51.503396;Nordhausen - 8 Rückertstraße;SB-Wäscherei in Nordhausen Sehr gute Maschinen und Trockner. Kleine Maschinen, Trockner 10 Minuten. Der Besitzer ist sehr nett und hilfsbereit. Der Waschsalon liegt in einer Sackgasse. Abbiegeoption NICHT verfügbar. Am besten auf dem öffentlichen Parkplatz parken und fünf Minuten zu Fuß gehen.
f1bf1884-9a63-4c1a-b203-a577ba80e1dc;10.953762;51.785869;Blankenburg (Harz;Sehr schöner ruhiger Platz in der Nähe des Schlosses ohne Versorgung. 15 Minuten zur Stadt
8a1df48b-f86a-4e6e-89f4-a7f88c03a798;10.89635;51.534227;Herrmannsacker - L1037;Einfache Wiese mit schöner Aussicht auf die Talsperre und das bergige Umland. Tagsüber viele Angler vor Ort und recht stark befahrene Straße in Hörweite, Nachts quasi kein Verkehr. Viele Stellmöglichkeiten auf der gesamten Wiese.
f00d7eeb-d402-43d3-8144-cf50b0253801;10.92978;51.81003;Blankenburg - ;Großer, befestigter Aussenparkplatz, mit Sonnen/Schattenplätzen, für das Kloster,mit Busshuttle. Fußläufig sind Supermärkte zu erreichen. Umgehungsstraße mit wenig Verkehr. Nachts sehr ruhig.
17b7d736-adf3-4c55-a773-d1695be73906;10.96314;51.57586;Südharz - 3 Zechental;Süßer kleiner Parkplatz direkt am Bach in Sichtweite von Schloss Stolberg. Begrenzter Wenderaum und Straße ist eine Sackgasse.
4a0d0a3a-2d8b-4b4a-8ff3-43a6ef924fb2;10.959303;51.789351;Blankenburg (Harz;Kostenpflichtiger Stellplatz Brockgarten, Schlossgarten, Innenstadt und Teufelsmauer bequem zu Fuß erreichbar. Sitzbänke vorhanden Öffentlichetoilette (Betrieben durch Stellplatzbetreiber) vorhanden Frischwasser auffüllen möglich in Rücksprache  Entsorgungsmöglichkeit für Toilette (ohne Chemie) und Abwasser über die Toiletten vor Ort  Kostenfreies WLAN über Freifunk Harz  Keine Längenbeschränkung In Hochsaison Anmeldung ratsam Freibad in der Stadt
b2f057a5-b180-4404-9779-18c8f56f2b9f;10.960689;51.788724;Blankenburg (Harz;Kleiner Parkplatz mitten in Blankenburg schöner Ausgangspunkt für Wanderungen oder zur Stadtbesichtigung  nur Strom kein v/e!  Wasser gibt es unten am Kiosk für einen Euro.   HWN 76 in unmittelbarer Nähe 74 auf sehr schönem Weg erreichbar
8d5f6e71-fcf3-430a-bdb0-b0aec07d11dc;10.9567;51.566101;Stolberg - 2A Thyratal;Parken vom Bahnhof aus, um eine Nacht zu verbringen oder um Stolberg zu besuchen, was einen Umweg wert ist. WC und Grauwasser Entsorgung. Kostenlos.
07f91dbd-dcbd-498a-92e9-8bcaea3ae7ca;10.785013;51.490801;Nordhausen - 56 Straße der Einheit;Sackgasse  ohne Wendemöglichkeit am Rande eines GWG. Nur zur Zwischenübernachtung oder einer Pause. Es ist sehr ruhig und sicher. Ansonsten ist nichts in unmittelbarer Nâhe. Leider etwas vermüllt. Die Sackgasse wird auch gern von LKW s genutzt zum abstellen bzw. für ihre Lenkzeitpausen.
4d5b3db1-9bc0-4e14-9a59-4ed3fc2a7281;10.958366;51.563608;Südharz - 5c Thyratal;Parkplatz des Freizeitbades Thyracrotte
1cb3be53-54bb-4db4-985f-0b6f49783898;10.980371;51.775677;Cattenstedt - Unnamed Road;Übernachtungsmöglichkeit in der Nähe einer Landstraße. Etwas Sichtgeschützt durch Bäume und Sträucher. Schöner Blick auf angrenzende Felder und Hügel. Für eine Nacht okay.
0b9cb3fc-cc23-443a-89a5-bacf6d5bf561;10.943;51.80989;Blankenburg - ;Großer Schotterparkplatz mit zwei Mülleimern. Wanderparkplatz zur Burg und Festung Regenstein. Es gibt allerdings noch einen näheren Parkplatz, wenn man zur Burg wandern möchte.
765cf32b-af35-4764-9a01-5e4bb0d7d2fd;10.92616;51.53794;Camping zur Wolfsmühle;Campingplatz oder Stellplatz für Wohnmobile. Anmeldung zwischen 7:30 Uhr und 22:00 Uhr möglich. Stromanschluss, Duschen, Toiletten und Abwaschmöglichkeiten (nur für Frauen) vorhanden. Platzieren Sie gut gepflegt und in Parzellen gestuft, um gerade stehen zu können. Für große Teams ist die Zufahrt zu den Parkplätzen etwas eng, aber machbar. Direkt daneben befindet sich ein Restaurant im Hotel.
c8509ea4-8ec4-4e80-b031-01f4e93a6253;11.006042;51.744608;Wienrode - ;Wanderparkplatz. ruhig gelegen
b8cacae6-1547-4149-a7de-8f788ac3187c;10.96308;51.79731;Blankenburg (Harz;Kleiner Wohnmobilstellplatz für maximal 3 Wohnmobile bzw . Wohnwagen. Auf einem großen privaten Grundstück gelegen . Mit Strom -, Wasser -, Abwasseranschluss und Brötchenservice. Toiletten-/ Duschcontainer kann dazu gebucht werden.  Ruhig und etwas versteckt in Bahnhofsnähe gelegen ,ist der Stellplatz der ideale Ausgangspunkt , um den Harz durch Nutzung des öffentlichen Nahverkehrs zu erkunden oder auf den nahe liegenden Radwegen eine Tour zu den Höhlenwohnungen in Langenstein zu machen , den Domschatz in Halberstadt zu besichtigen .Auch die Weltkulturerbestadt Quedlinburg ist mit dem Fahrrad (ca. 1,5h) erreichbar. Für die Wanderfreunde stellen die Burgruine Regenstein , das Kloster Michaelstein und natürlich die sagenumwobene Teufelsmauer nur eine kleine Auswahl lohnender Ziele dar. Die Altstadt von Blankenburg mit dem Welfenschloss und den Barocken Gärten sind fußläufig erreichbar (30min). Der Stellplatz ist nur nach Voranmeldung buchbar bzw.zu besichtigen. Der Mindestaufenthalt beträgt 2 Übernachtungen. Bei Interesse kontaktiert ihr den Besitzer besten per WhatsApp.
37d5d5fb-1f8b-449f-b946-824095c598f3;10.940703;51.814963;Blankenburg (Harz;Tagsüber sehr voll und dicht an der Straße.
4edc66a5-7f52-4d72-a6b9-713869fc8b61;10.992216;51.768369;Teichwirtschaft Timmenrode;Kleiner Platz beim Angelverein, nette Leute. frischer Fisch und eine kleine Kneipe
b82f6f28-5ef8-4b57-8537-4c130fbfdc05;11.18935;51.598973;Königerode - Mühlweg;Kleiner Parkplatz an einem See.
f79d3406-6ad5-449e-a055-d61261251158;11.1419;51.588001;Camping Ludwig;Camping Ludwig mit Camperplatz, Duschen, Toiletten, Entleerung. 19 Euro für den Camper und 4 Erwachsene. Lage sehr schön und sehr ruhig, freundlicher Empfang.
535bd4cd-d13f-4efa-b334-0d074963e173;11.20674;51.566104;Sangerhausen - 2 Talsperre;Kleiner Parkplatz an der Staumauer. Nur für kleine Camper / Kastenwagen bis 6,5m geeignet . Schmale 5km Zufahrt aus Richtung  Wippra. Kein Funknetz
59b9bad6-08fd-442e-9991-300eca8f3800;11.206023;51.563961;Sangerhausen - 2 Talsperre;Der Platz ist für max. 4 Fahrzeuge geeignet. Zufahrt begrenzt auf max. 3,5 Tonnen. Untergrund ist Wiese. Kein Handyempfang und kein Internet! Absolut ruhig in der Nacht. Am Tage wenige Wanderer auf dem Weg zum Harzer Naturistenstieg.
58936809-3d6f-4036-a785-986a83562e14;11.140593;51.642102;Harzgerode - Wallstrasse 44;Parken für AC. Kostenlos. Ohne Dienste Es gibt eine Toilette, aber sie waren geschlossen. 4 Wohnmobilstellplätze sind ausgeschildert. kostenlos
0f5be019-eb70-4164-aa11-4ea15b4b0606;11.257904;51.568177;Sangerhausen - 21B Eckardtstraße;Parkplatz an der neuen Hochwasserschutzanlage. Anlage ist fertiggestellt und keine Baustelle mehr.
c6767384-7c56-4c07-b584-87a764e29800;11.13881;51.651654;Harzgerode - 31B Mägdesprunger Straße;Heute unser Ausweich Platz, da der Parklatz ein paar hundert Meter weiter z.Z. nicht erreichbar ist(Straßenbau Arbeiten). Keinerlei hinweise zur Park Regelung.
4d2f89d2-7d91-45d3-91e5-7fc78159426e;11.282496;51.579616;Sangerhausen - 29 Wippraer Bahnhofstraße;Parkplatz für eine Nacht. Sehr ruhig.
26513430-00a2-4225-bd2c-5e81a1d3133a;11.123157;51.646545;Harzgerode - ;Toller Ort zum Übernachten. Wir hatten hier eine sehr ruhige Nacht hinter einem kleinen Felsen. Am kleinen Bach dicht am Wald.
99eaa5ce-8cfa-4f5c-a403-08010d84cc77;11.136073;51.657792;Harzgerode - Mägdesprunger Straße;Schöner Platz am Eingang von Harzgerode. Auf einem Wanderparkplatz gelegen mit direktem Wald und Feldzugang
fbb2c0a5-22b7-4e32-a5fa-04b5d3be910f;11.191643;51.674218;Harzgerode - 1 Selkemühle;Parkplatz an der Selkemühle mit Übernachtungsmöglichkeit. Am Ende einer Sackgasse gelegen. Guter Startpunkt von Wander- und Radtouren. Parkplatz sehr ruhig.
f4bda5c6-9d1d-4dd8-be17-4d1ab53b6731;11.11397;51.6477;Harzgerode - 5 B185;Parkplatz, Tag & Nacht kostenlos. Keine Einschränkungen. Direkt am Bahnhof der HSB: nachts kein Zugverkehr u am morgen kann man die einfahrende Bahn/Dampflok direkt sehen. Parkhäfen für PKW bis Campervan. WoMo passen nicht. Tagsüber eher voll, nachts idR leer. Liegt zwar an Bundesstraße, nachts aber kaum Verkehr! Mülleimer vorhanden.
b16aaf95-3a35-40a4-acda-788c97faef4e;11.09127;51.62845;Harzgerode - 3c Kreisstraße;Ein schöner und ruhiger Stellplatz direkt neben einem Spielplatz und Sitzgruppen. Perfekt für eine Übernachtung im Auto. Ein Wohnmobil dürfte auch gut Platz haben.
d1accfd8-d99d-4122-877b-2e2e38335c0a;11.085588;51.61158;Ferienpark Birnbaumteich GmbH;Schöner Campingplatz mit neuen Waschräumen. Top gerne wieder. Brötchen Service
e3510812-53af-4096-a8e0-0d5e80f3431d;11.241916;51.531173;Sangerhausen - L232;Ruhiger Wanderparkplatz ohne Strom, keine sanitären Anlagen, gebührenfrei. Ausgangspunkt für Wanderungen und Fahrradtouren.
dc78fb24-6275-4b5e-b9fe-7de5d935f7c4;11.068646;51.58494;Südharz - L234;Kleiner Parkplatz am Rande der Landstraße. Schattig und eben, für eine Pause gut geeignet. Übernachten wurde nicht ausprobiert. Keine verbotsschilder.  Könnte bei Regen etwas matschig werden.
31a3e626-78ce-4658-a8c0-4e82b439f5c0;11.28339;51.67796;Falkenstein/Harz - 3 Gartenhaus;Quedlinburg
c6cb81e8-cb04-4b63-a67c-5a2fd56f2e87;11.101461;51.550324;Sangerhausen - 6 Wolfsberger Pfarre;Kleiner Stellplatz am Freibad mit Stromsäule.  1kwh = 50 cents  Zufahrt etwas eng, Mobile über 7,5m dürfte schwierig werden.
fdbc63ad-7212-4b7e-ae17-70ed2b5b2432;11.285069;51.678867;Falkenstein/Harz - K1344;Burg Falkenstein im Harz. Am Tag zahlt man drei Euro, nachts steht man kostenlos bis 9.00 Uhr. Es gibt einen Spielplatz und Mülleimer. Am Tag kann man für 0,50 Cent Toiletten am Platz nutzen. Ruhig in der Nacht und perfekt um am Tag die Burg zu besuchen.
27076f5e-220a-4b80-bd04-22e56e864d0d;11.059777;51.612767;Straßberg - Glasebacher Weg;Bergwerksmuseum "Grube Glasebach"! Sehr schönes Museum "Unter Tage" mit sehr freundlichen Betreibern. Privater Verein. Größerer Parkplatz, Tags über gut besucht. Übernachtungs Erlaubniss war kein Problem, haben sehr ruhig gestanden, und am nächsten Tag die Führung mitgemacht.
b09e3358-3817-49fd-b85c-759ee1b8a0c0;11.269887;51.685592;Campingstellplatz Thalmühle;Ideal gelegen im Selketal, sehr ruhig und umgeben von Natur. Kein Mobilfunkempfang, aber schnelles WLAN ist verfügbar. Ankünfte treffen in der Regel gegen 18:00 Uhr ein.
c8c95ada-0499-476d-a069-2b93cd71c94d;11.06021;51.594893;Südharz - L235;Grosser Parkplatz mit Schotter, durch Bäume von der Straße getrennt, nachts ganz ruhig, tagsüber steht hier eine Gulasch Kanone. Für eine Nacht perfekt!
26271cf7-27e4-4e7e-8c9d-35e5d3f98fbc;11.051829;51.613242;Straßberg - 104A Weidegasse;Ruhiger Parkplatz mit Blick auf Straßberg.
5fa7bf6d-1762-4814-87bb-f474826a0fef;11.32711;51.56129;Sangerhausen - ;Schöner kleiner Platz mitten im Wald an einem kleinen Teich. Dort befinden sich 2 Sitzmöglichkeiten ein Abfalleimer und ein kleiner Teich. Tags über kaum Verkehr und Nachts keiner. Der Platz reicht für 2 Große Womos. Sehr gute Möglichkeiten zum Wandern und Radfahren.
cd300d31-fd31-4c7c-b109-55774c8c9fd0;11.11118;51.686332;Harz - Camp Bremer Teich;Naja, die Wiese, auf die ich mit meinem Dachzelt gehen durfte, ist sehr überschaubar. Es gibt keine große Auswahl an Orten. Sanitäranlagen sind sehr ordentlich, aber weit weg und wenig für alle Camper.
250a585e-3474-45cb-a86a-dc267c05a3df;11.259823;51.522199;Sangerhausen - L232;Gutes Platz für eine Nacht. Sehr ruhig kaum Verkehr.
1f0835ae-87b1-419e-a93f-0cc24eee951d;11.311423;51.538571;Sangerhausen - Harzstraße;Kleiner Waldparkplatz, direkt an der Strasse gelegen. Trotzdem sehr ruhig da in der Nacht kaum Verkehr. In unmittelbarer Nähe ist auch ein Freibad und ein kleiner Campingplatz. Weiterhin ist im nächsten Ort Wippra ein Outdoor Kletterpark.
778d5e1a-172e-4371-ab36-45f828d83ca0;11.22587;51.70887;Ballenstedt - Am Kaufberg;Platz für 3 Mobile
2324585c-1bbb-4377-a380-8703b06952ce;11.311098;51.536855;Camping am Waldbad;Campingplatz mit 8 Stellplätzen, Betreiber nicht dauerhaft vor Ort. man kann sich aber schon hinstellen und später die Formalitäten klären.
e23e8151-9a15-4a86-a633-0a64cb1dc7f1;11.34947;51.65738;Stangerode - 13 Deistraße;Kostenpflichtiger befestigter Parkplatz
87287d9c-c25a-4c42-9c0b-d9cfc984bbfd;11.36494;51.63321;Bräunrode - Unnamed Road;Sehr schöner Waldplatz zwischen Bäumen und Feldern & von Tieren umgeben. Kleine aber feine Sitzmöglichkeiten aus Baumstämmen vorhanden und ein kleines Häuschen, allerdings nicht mehr so richtig benutzbar - die Decke kommt schon runter. Keine Lichtverschmutzung - Sternenhimmel super klar!
8276dae4-eb76-492b-8200-0256bc2a71e5;11.286319;51.701702;Falkenstein/Harz - Allee;Großer Parkplatz am Ortsrand Meisdorf an einer Kreisstraße, daher Verkehrslärm, aber wenig Verkehr. Keine Versorgung/Service. Untergrund Schotter, auch für große Wohnmobile geeignet. Gut für eine Nacht, aber nicht mehr.
a3665f82-55f3-4180-a278-6f66f3d449e4;11.2333;51.71617;Ballenstedt - 2B Robert-Koch-Straße;Ruhiger Parkplatz, wenn am Schloss alles belegt ist.
c11c1d7c-a614-4521-ac4e-6d153619eef9;11.22029;51.71772;Ballenstedt - 2A Schloßplatz;Neben dem Schloss Ballenstedt und neben dem Schlosshotel. Riesiger gebührenpflichtiger Parkplatz, auf dem das Stehen über Nacht erlaubt ist und es einen Tarif extra für Wohnmobile gibt.
9f6bdff2-0038-43b9-b5a0-8758846170f5;11.02575;51.59921;Südharz - ;Ruhiger abgelegener Platz.
2ce63cbf-9d9c-4912-b702-88b4b76e65ae;11.377107;51.620867;Mansfeld - 6 Klausstraße Saurasen;Kleiner Schmutzparkplatz am Anfang einer Route. ruhig, um die Nacht zu verbringen.
ebcecc6d-202f-4062-97be-58e1a2b0991f;11.142373;51.718248;Quedlinburg - Am Kuhkopf;An der Zufahrt zum alten Fdgb Heim, welches jetzt ein Lostplace ist, sind ein paar ruhige Plätzchen zu finden. Straße hört man nur ein wenig.
f8cf0d2f-e1c6-4491-b07e-9cf9e420e83c;11.160843;51.723661;Gernrode - 1A Steiler Weg;Schöner Platz, fast direkt neben der selketalbahn- Dampfloks kommen vorbei. Große Wiesen und Obstbäume. Und Bäde teich. War Mitte September hier. Allein. Wie es im Sommer aussieht, weiß ich nicht.
35c47a6c-e097-495e-bd45-4101d63614d8;11.245577;51.722955;Ballenstedt - Nr. 2 Neue Bahnhofstraße;Stellplatz für Wohnmobile am Gäste und Seminarhaus in Ballenstedt. Abgeschlossenes Gelände am Parkplatz, Schrankenzugang. Frühstücksbuffet im Gästehaus buchbar per Telefon.  Sie Stehen auf festen Boden ( Beton) für alle Größen. ca. 2 Min bis Supermarktfiliale ( Netto) mit Handwerksbäcker.5 Min. bis zum Stadtkern
465aa554-d0e9-4461-ad42-685be66aa8fd;11.140711;51.499541;Südharz - ;Hier stand ein großer Camper, idyllischer Ort mitten in der Natur
0328f7d7-43fa-4590-85ed-574dfc3dc408;11.20406;51.72739;Ballenstedt - Unnamed Road;Sicht auf das Schloss Ballenstedt
34a6c8b0-bc22-422d-80ea-2d90ad0e0262;11.013677;51.587555;Südharz - L236;Ruhiger Parkplatz mit sehr wenig Verkehr. Nachts in der Regel leer.
0b5c493e-b038-4e17-ab6e-4d3360d7166f;11.336088;51.524573;Pölsfeld - 49 K2307;Schotter Parkplatz am Sportplatz. Gaststätte direkt daneben.
384d32c8-0172-43fa-968f-224e52dafff6;11.12556;51.72538;Harzer Feriengarten - Kurcamping;Nah zum Ortskern
8333f5a7-cd81-4691-85aa-bbbd96f57726;11.32892;51.51456;Sangerhausen - Obersdorf an der Blauen Halde 1;Fantastischer Campingplatz in Sangerhausen OT. Oberstdorf in Sachsen-Anhalt ist nur 10 Minuten von der Autobahn A38 entfernt. Der ganzjährig geöffnete Camping- und Stellplatz liegt im Herzen des wunderschönen Südharzes und der goldenen Aue. Umgeben von Natur und zahlreichen Ausflugszielen wie dem Europa-Rosarium sind Sie bei uns genau richtig. Alle Stellplätze verfügen über Stromanschlüsse, ausreichend Platz zum Ausfahren des Vorzeltes oder zum Aufstellen Ihrer Zelte, einen festen Untergrund aus Grasgittern und gute Rangiermöglichkeiten. Am Lagerfeuer- und Grillplatz können Sie Ihren Abend ausklingen lassen, wir organisieren täglich neues Brennholz. Spontane Grillabende oder ein kühles Bier am Abend sind kein Problem! In der Mitte des Platzes gibt es eine Getränke- und Grillstation, falls Ihnen die Vorräte ausgehen. Auf dem gepflegten Gelände befindet sich auch ein großes Fahrradgeschäft mit Werkstatt und ein sehr schön eingerichtetes Bistro. Für den Frühstücks- und Brötchenservice kontaktieren Sie uns bitte rechtzeitig am Vortag. _________________________________________________ Unsere Leistungen: • Anreise 24 Stunden am Tag möglich • Fahrradverleih • Außensanitäranlagen (WC/Dusche) • Wohnwagen-, Fahrrad- und Autowäsche mit Selbstbedienung • Sauna | Dusche | Outdoor-Whirlpool • BBQ-Haus mit Abspülbereich • Ständige Versorgung mit Speisen und Getränken • Umfangreiche Auswahl im Fahrradshop Fahrräder und Zubehör • Große Fahrradwerkstatt Reparaturen aller Marken und Modelle Unsere Preisliste: • Hunde frei .
b9361bb6-3875-4ba8-ae8a-205f4a12177c;11.382809;51.661819;Alterode - 1 Schlackenmühle;Großer, ebener Parkplatz, neben einem Restaurant. In der Nacht war die Straße kaum zu hören.
a951a9b3-0724-4c01-9a80-ab3fffb88b9c;11.115543;51.496742;Südharz - 86 Dorfstraße;Ruhiger Ort am Ende des Dorfes Questenberg. Es gibt einen großen Parkplatz neben dem Wald und einem Pinic Tisch. Kleiner Bonus: Basketball :-)
bbab0583-a7e8-4691-ae8e-a30e60038971;11.278065;51.494898;Sangerhausen - 150 Hoher Berg;Parkplatz unterhalb der Moltkewarte. Tagsüber einige Wanderer und Autos. Für Wohnmobiles bis max. 6,50 m.
762a6840-9d2c-45d9-b506-f46ba0cc3611;11.21374;51.73463;Ballenstedt - Am Zehling;Der kleine Platz liegt direkt an den Gegensteinen...das Navi findet das. die Straße endet dort es ist die ganze Nacht totale Ruhe...am Tage viele Besucher. wir fanden es für eine Nacht sehr gut.
b2f5f8a3-6299-47ef-88d3-51f9d7c8e355;11.050537;51.694839;Thale - 4 Infang;Wanderparkplatz umgeben von Wald. Recht groß, hier haben bestimmt 15 Mobile platz und es ist recht ebenerdig. Die Straße hört man nicht, hatten eine ruhige Nacht für uns allein. Von hier aus kann man gut zu den Teufelsmühlen und den Angelteichen wandern.
00ce2176-1324-4bd6-85d2-89ac1b496517;11.218447;51.73628;Ballenstedt - 1 An den Gegensteinen;Ein Sehr idyllischer Park/Rastplatz direkt an der Teufelsmauer. Tisch und Bank sind vorhanden. ein Mülleimer ebenfalls. wir standen eine Nacht mit dem PKW und es war sehr ruhig.  vom Platz aus, kann man entlang der Teufelsmauer wandern gehen. der Platz ist leicht abschüssig aber am oberen Ende können zwei PKW oder Bullis Recht gerade stehen. Für Wohnmobile eher nicht geeignet. Handyempfang ist top.
